Nombre,Código UTA 2020,Código UTA 2010,Latitud,Longitud,Municipio,Departamento,Provincia,Superficie en km²,Población,Densidad Poblacional hab/km²,Ruta raiz de servicos OWS,Capa,Filtros de la Capa
LA ESCONDIDA,2.2056E+14,2.2056E+14,-27.10732485,-59.44753251,LA ESCONDIDA,GENERAL DONOVAN,CHACO,,,,,,
KILOMETRO 548,2.2056E+14,2.2056E+14,-27.09668174,-59.42115105,LA ESCONDIDA,GENERAL DONOVAN,CHACO,,,,,,
COLONIA EL CACIQUE LLORON,2.2056E+14,2.2056E+14,-27.04859208,-59.43743593,LA ESCONDIDA,GENERAL DONOVAN,CHACO,,,,,,
LEGUA 41,2.2056E+14,2.2056E+14,-27.08111444,-59.38577581,LA ESCONDIDA,GENERAL DONOVAN,CHACO,,,,,,
LAS CHACRAS,1.4049E+14,1.4049E+14,-30.28576787,-64.37897808,QUILINO,ISCHILIN,CÓRDOBA,,,,,,
LOS CADILLOS,1.4049E+14,1.4049E+14,-30.10186689,-64.45199984,QUILINO,ISCHILIN,CÓRDOBA,,,,,,
VILLA QUILINO,1.4049E+14,1.4049E+14,-30.21011575,-64.47756742,QUILINO,ISCHILIN,CÓRDOBA,,,,,,
QUILINO,1.4049E+14,1.4049E+14,-30.21595522,-64.5029777,QUILINO,ISCHILIN,CÓRDOBA,,,,,,
CARRENLEUFU,2.60568E+14,2.60568E+14,-43.58568854,-71.70090202,CARRENLEUFU,LANGUIÑEO,CHUBUT,,,,,,
LAGO BLANCO,2.60848E+14,2.60848E+14,-45.94685942,-71.26411066,LAGO BLANCO,RIO SENGUER,CHUBUT,,,,,,
VILLA SANTOS TESEI,6.40804E+13,6.40804E+13,-34.61239445,-58.65381037,HURLINGHAM,HURLINGHAM,BUENOS AIRES,,,,,,
HURLINGHAM,6.40804E+13,6.40804E+13,-34.59309314,-58.63572095,HURLINGHAM,HURLINGHAM,BUENOS AIRES,,,,,,
WILLIAM C. MORRIS,6.40804E+13,6.40804E+13,-34.58156228,-58.65830054,HURLINGHAM,HURLINGHAM,BUENOS AIRES,,,,,,
ORATORIO MORANTE,8.20282E+14,8.20282E+14,-33.4335022,-60.40251923,GODOY,CONSTITUCION,SANTA FE,,,,,,
GODOY,8.20282E+14,8.20282E+14,-33.36970987,-60.50941302,GODOY,CONSTITUCION,SANTA FE,,,,,,
CAMPO LA VICTORIA,8.20282E+14,8.20282E+14,-33.4061679,-60.4776607,GODOY,CONSTITUCION,SANTA FE,,,,,,
VILLA MERCEDES,7.4035E+14,7.4035E+14,-33.67736978,-65.47314337,VILLA MERCEDES,GENERAL PEDERNERA,SAN LUIS,,,,,,
LA RIVERA,7.4035E+14,7.4035E+14,-33.69417366,-65.50389419,VILLA MERCEDES,GENERAL PEDERNERA,SAN LUIS,,,,,,
DIQUE VULPIANI,7.4035E+14,7.4035E+14,-33.66154699,-65.53572689,VILLA MERCEDES,GENERAL PEDERNERA,SAN LUIS,,,,,,
LA RIBERA,7.4035E+14,7.4035E+14,-33.69181223,-65.50073106,VILLA MERCEDES,GENERAL PEDERNERA,SAN LUIS,,,,,,
SAN FRANCISCO DE ALFARCITO,3.80076E+14,3.80076E+14,-23.27530252,-65.94638046,BARRANCAS,COCHINOCA,JUJUY,,,,,,
SANTA ANA DE LA PUNA,3.80076E+14,3.80076E+14,-23.1466006,-66.03210333,BARRANCAS,COCHINOCA,JUJUY,,,,,,
TUSAQUILLAS,3.80076E+14,3.80076E+14,-23.17094554,-65.9732428,BARRANCAS,COCHINOCA,JUJUY,,,,,,
SANTA ANA,3.80076E+14,3.80076E+14,-23.1474247,-66.03121948,BARRANCAS,COCHINOCA,JUJUY,,,,,,
TRANCAS,3.80076E+14,3.80076E+14,-23.04800797,-66.13256073,BARRANCAS,COCHINOCA,JUJUY,,,,,,
RINCONADILLAS,3.80076E+14,3.80076E+14,-23.28866435,-65.94123354,BARRANCAS,COCHINOCA,JUJUY,,,,,,
SALADO,3.80076E+14,3.80076E+14,-23.04861069,-66.09285736,BARRANCAS,COCHINOCA,JUJUY,,,,,,
ABDON CASTRO TOLAY,3.80076E+14,3.80076E+14,-23.3386411,-66.09014323,BARRANCAS,COCHINOCA,JUJUY,,,,,,
SANTUARIO DE TRES POZOS,3.80076E+14,3.80076E+14,-23.51550696,-65.94761287,BARRANCAS,COCHINOCA,JUJUY,,,,,,
TOLARITO,3.80076E+14,3.80076E+14,-23.29167366,-66.08133698,BARRANCAS,COCHINOCA,JUJUY,,,,,,
28 DE JULIO,2.60425E+14,2.60425E+14,-43.38097713,-65.83868774,28 DE JULIO,GAIMAN,CHUBUT,,,,,,
NAUPA HUEN,6.20355E+14,6.20355E+14,-39.82828459,-69.50897269,NAUPA HUEN,EL CUY,RÍO NEGRO,,,,,,
CHILCA JULIANA,8.61686E+14,8.61686E+14,-28.80748336,-63.48677734,CHILCA JULIANA,SALAVINA,SANTIAGO DEL ESTERO,,,,,,
EL MANZANO,5.0077E+14,5.0077E+14,-36.107008,-69.761199,MALARGUE,MALARGUE,MENDOZA,,,,,,
LAS CHACRAS,5.0077E+14,5.0077E+14,-36.18867493,-69.66440582,MALARGUE,MALARGUE,MENDOZA,,,,,,
MALARGUE,5.0077E+14,5.0077E+14,-35.47701071,-69.58864919,MALARGUE,MALARGUE,MENDOZA,,,,,,
LA JUNTA,5.0077E+14,5.0077E+14,-35.2675837,-69.50030017,MALARGUE,MALARGUE,MENDOZA,,,,,,
LUANCO,5.0077E+14,5.0077E+14,-37.18549347,-68.39237213,MALARGUE,MALARGUE,MENDOZA,,,,,,
LAS LEÑAS,5.0077E+14,5.0077E+14,-35.15396508,-70.0817911,MALARGUE,MALARGUE,MENDOZA,,,,,,
EL CHACAY,5.0077E+14,5.0077E+14,-35.35740405,-69.58238523,MALARGUE,MALARGUE,MENDOZA,,,,,,
AGUA ESCONDIDA,5.0077E+14,5.0077E+14,-36.15323904,-68.30484285,MALARGUE,MALARGUE,MENDOZA,,,,,,
MINACAR,5.0077E+14,5.0077E+14,-35.86965561,-70.06924439,MALARGUE,MALARGUE,MENDOZA,,,,,,
EL INFIERNILLO,5.0077E+14,5.0077E+14,-36.75704193,-69.18418884,MALARGUE,MALARGUE,MENDOZA,,,,,,
LOS CARRIZALES,5.0077E+14,5.0077E+14,-36.70020676,-68.37201691,MALARGUE,MALARGUE,MENDOZA,,,,,,
EL VATRO,5.0077E+14,5.0077E+14,-36.7022934,-69.94219971,MALARGUE,MALARGUE,MENDOZA,,,,,,
RINCON CHICO,5.0077E+14,5.0077E+14,-37.13733673,-69.58334351,MALARGUE,MALARGUE,MENDOZA,,,,,,
LA SALINILLA,5.0077E+14,5.0077E+14,-36.2803421,-68.57088471,MALARGUE,MALARGUE,MENDOZA,,,,,,
EL ALAMBRADO,5.0077E+14,5.0077E+14,-36.26989321,-69.85749485,MALARGUE,MALARGUE,MENDOZA,,,,,,
CALMUCO,5.0077E+14,5.0077E+14,-36.47914887,-69.82659912,MALARGUE,MALARGUE,MENDOZA,,,,,,
LLANO BLANCO,5.0077E+14,5.0077E+14,-35.91611481,-69.76875305,MALARGUE,MALARGUE,MENDOZA,,,,,,
PATA MORA,5.0077E+14,5.0077E+14,-37.20100021,-69.1072464,MALARGUE,MALARGUE,MENDOZA,,,,,,
RIO GRANDE,5.0077E+14,5.0077E+14,-35.87088253,-69.80667807,MALARGUE,MALARGUE,MENDOZA,,,,,,
LOS CORRALES,5.0077E+14,5.0077E+14,-36.1494751,-68.34661102,MALARGUE,MALARGUE,MENDOZA,,,,,,
EL CARAPACHO,5.0077E+14,5.0077E+14,-35.81309386,-69.19069223,MALARGUE,MALARGUE,MENDOZA,,,,,,
LA VALENCIANA,5.0077E+14,5.0077E+14,-35.54667321,-69.90122162,MALARGUE,MALARGUE,MENDOZA,,,,,,
LOS MOLLES,5.0077E+14,5.0077E+14,-35.1541609,-69.95182839,MALARGUE,MALARGUE,MENDOZA,,,,,,
MOGOTES ASPEROS,1.40702E+14,1.40702E+14,-31.18595404,-65.24743587,ESTANCIA DE GUADALUPE,MINAS,CÓRDOBA,,,,,,
OJO DE AGUA,1.40702E+14,1.40702E+14,-31.19116367,-65.36343883,ESTANCIA DE GUADALUPE,MINAS,CÓRDOBA,,,,,,
ESTANCIA DE GUADALUPE,1.40702E+14,1.40702E+14,-31.12421016,-65.22690021,ESTANCIA DE GUADALUPE,MINAS,CÓRDOBA,,,,,,
SAN FELIPE,1.40702E+14,1.40702E+14,-31.21560714,-65.35527449,ESTANCIA DE GUADALUPE,MINAS,CÓRDOBA,,,,,,
TRES LOMAS,1.40702E+14,1.40702E+14,-31.14746857,-65.18268585,ESTANCIA DE GUADALUPE,MINAS,CÓRDOBA,,,,,,
LA ARGENTINA,1.40702E+14,1.40702E+14,-31.22291155,-65.30273585,ESTANCIA DE GUADALUPE,MINAS,CÓRDOBA,,,,,,
CORREA,8.20563E+14,8.20563E+14,-32.84946108,-61.25455691,CORREA,IRIONDO,SANTA FE,,,,,,
BERRETTA,8.20563E+14,8.20563E+14,-32.92903431,-61.26562377,CORREA,IRIONDO,SANTA FE,,,,,,
ESTACION BERRETA,8.20563E+14,8.20563E+14,-32.9365041,-61.2560121,CORREA,IRIONDO,SANTA FE,,,,,,
EL CHALTEN,7.80285E+14,7.80285E+14,-49.33197312,-72.89162671,EL CHALTEN,LAGO ARGENTINO,SANTA CRUZ,,,,,,
EL ARBOLITO,6.17502E+13,6.17502E+13,-33.9147838,-60.94380819,COLON,COLON,BUENOS AIRES,,,,,,
LOS BARRILES,6.17502E+13,6.17502E+13,-33.9462889,-61.2276668,COLON,COLON,BUENOS AIRES,,,,,,
COLONIA LA PERLA,6.17502E+13,6.17502E+13,-33.97042426,-61.07620535,COLON,COLON,BUENOS AIRES,,,,,,
SARASA,6.17502E+13,6.17502E+13,-34.05233531,-61.20190409,COLON,COLON,BUENOS AIRES,,,,,,
PEARSON,6.17502E+13,6.17502E+13,-33.6518963,-60.89222399,COLON,COLON,BUENOS AIRES,,,,,,
COLON,6.17502E+13,6.17502E+13,-33.89786336,-61.09956051,COLON,COLON,BUENOS AIRES,,,,,,
KILOMETRO 404,6.08401E+13,6.08401E+13,-37.6438,-59.8529,BENITO JUAREZ,BENITO JUAREZ,BUENOS AIRES,,,,,,
VILLA CACIQUE,6.08401E+13,6.08401E+13,-37.67047789,-59.40035334,BENITO JUAREZ,BENITO JUAREZ,BUENOS AIRES,,,,,,
EL SAUCE,6.08401E+13,6.08401E+13,-37.66079712,-59.56612397,BENITO JUAREZ,BENITO JUAREZ,BUENOS AIRES,,,,,,
BARKER,6.08401E+13,6.08401E+13,-37.64241113,-59.38893803,BENITO JUAREZ,BENITO JUAREZ,BUENOS AIRES,,,,,,
BENITO JUAREZ,6.08401E+13,6.08401E+13,-37.67664102,-59.80576771,BENITO JUAREZ,BENITO JUAREZ,BUENOS AIRES,,,,,,
CORONEL RODOLFO BUNGE,6.08401E+13,6.08401E+13,-37.5763984,-60.1392005,BENITO JUAREZ,BENITO JUAREZ,BUENOS AIRES,,,,,,
LOPEZ,6.08401E+13,6.08401E+13,-37.55451209,-59.62784615,BENITO JUAREZ,BENITO JUAREZ,BUENOS AIRES,,,,,,
SAN ANTONIO,6.08401E+13,6.08401E+13,-37.74727631,-59.81640244,BENITO JUAREZ,BENITO JUAREZ,BUENOS AIRES,,,,,,
EL LUCHADOR,6.08401E+13,6.08401E+13,-37.3214623,-60.292086,BENITO JUAREZ,BENITO JUAREZ,BUENOS AIRES,,,,,,
LA TINTA,6.08401E+13,6.08401E+13,-37.60838699,-59.51456452,BENITO JUAREZ,BENITO JUAREZ,BUENOS AIRES,,,,,,
TEDIN URIBURU,6.08401E+13,6.08401E+13,-37.36836863,-59.76303916,BENITO JUAREZ,BENITO JUAREZ,BUENOS AIRES,,,,,,
LOS CONQUISTADORES,3.0028E+14,3.0028E+14,-30.59440746,-58.46826271,LOS CONQUISTADORES,FEDERACION,ENTRE RÍOS,,,,,,
GANCEDO,2.2036E+14,2.2036E+14,-27.48964879,-61.67387717,GANCEDO,12 DE OCTUBRE,CHACO,,,,,,
LA BOLSA,2.2036E+14,2.2036E+14,-27.38206532,-61.62596109,GANCEDO,12 DE OCTUBRE,CHACO,,,,,,
LABORDE,1.41822E+14,1.41822E+14,-33.15298918,-62.85607378,LABORDE,UNION,CÓRDOBA,,,,,,
GENERAL GALARZA,3.0049E+14,3.0049E+14,-32.72127131,-59.3958887,GENERAL GALARZA,GUALEGUAY,ENTRE RÍOS,,,,,,
MOJOTORO,6.6077E+14,6.6077E+14,-24.70934677,-65.28838348,LA CALDERA,LA CALDERA,SALTA,,,,,,
ISLAS DE VAQUEROS,6.6077E+14,6.6077E+14,-24.603539,-65.380166,LA CALDERA,LA CALDERA,SALTA,,,,,,
SANTA GERTRUDIS,6.6077E+14,6.6077E+14,-24.6632061,-65.31018829,LA CALDERA,LA CALDERA,SALTA,,,,,,
LA CALDERILLA,6.6077E+14,6.6077E+14,-24.64152455,-65.38083679,LA CALDERA,LA CALDERA,SALTA,,,,,,
LOS SAUCES,6.6077E+14,6.6077E+14,-24.4710331,-65.37662506,LA CALDERA,LA CALDERA,SALTA,,,,,,
LOS PORONGOS,6.6077E+14,6.6077E+14,-24.53203392,-65.29351044,LA CALDERA,LA CALDERA,SALTA,,,,,,
LA CALDERA,6.6077E+14,6.6077E+14,-24.60494862,-65.38233773,LA CALDERA,LA CALDERA,SALTA,,,,,,
EL GALLINATO,6.6077E+14,6.6077E+14,-24.68660722,-65.28672685,LA CALDERA,LA CALDERA,SALTA,,,,,,
CAMPO ALEGRE,6.6077E+14,6.6077E+14,-24.57701543,-65.36872897,LA CALDERA,LA CALDERA,SALTA,,,,,,
LA FALDA DE SAN ANTONIO,1.0063E+14,1.0063E+14,-28.41984873,-65.6988378,FRAY MAMERTO ESQUIU,FRAY MAMERTO ESQUIU,CATAMARCA,,,,,,
EL HUECO,1.0063E+14,1.0063E+14,-28.41278845,-65.71753699,FRAY MAMERTO ESQUIU,FRAY MAMERTO ESQUIU,CATAMARCA,,,,,,
LA TERCENA,1.0063E+14,1.0063E+14,-28.37344735,-65.70812925,FRAY MAMERTO ESQUIU,FRAY MAMERTO ESQUIU,CATAMARCA,,,,,,
LA CARRERA,1.0063E+14,1.0063E+14,-28.34955768,-65.70911959,FRAY MAMERTO ESQUIU,FRAY MAMERTO ESQUIU,CATAMARCA,,,,,,
POMANCILLO,1.0063E+14,1.0063E+14,-28.30193901,-65.72743988,FRAY MAMERTO ESQUIU,FRAY MAMERTO ESQUIU,CATAMARCA,,,,,,
VILLA LAS PIRQUITAS,1.0063E+14,1.0063E+14,-28.27546652,-65.73343148,FRAY MAMERTO ESQUIU,FRAY MAMERTO ESQUIU,CATAMARCA,,,,,,
COLLAGASTA,1.0063E+14,1.0063E+14,-28.36167764,-65.72826902,FRAY MAMERTO ESQUIU,FRAY MAMERTO ESQUIU,CATAMARCA,,,,,,
SAN JOSE,1.0063E+14,1.0063E+14,-28.38873215,-65.70627013,FRAY MAMERTO ESQUIU,FRAY MAMERTO ESQUIU,CATAMARCA,,,,,,
POMANCILLO OESTE,1.0063E+14,1.0063E+14,-28.31784325,-65.74234472,FRAY MAMERTO ESQUIU,FRAY MAMERTO ESQUIU,CATAMARCA,,,,,,
POMANCILLO ESTE,1.0063E+14,1.0063E+14,-28.30871737,-65.72220984,FRAY MAMERTO ESQUIU,FRAY MAMERTO ESQUIU,CATAMARCA,,,,,,
SAN ANTONIO,1.0063E+14,1.0063E+14,-28.42377668,-65.70621343,FRAY MAMERTO ESQUIU,FRAY MAMERTO ESQUIU,CATAMARCA,,,,,,
CRUCE MUÑOZ,6.59506E+13,6.59506E+13,-37.1820692,-60.6463365,OLAVARRIA,OLAVARRIA,BUENOS AIRES,,,,,,
VILLA ALFREDO FORTABAT,6.59506E+13,6.59506E+13,-36.98027146,-60.27908284,OLAVARRIA,OLAVARRIA,BUENOS AIRES,,,,,,
CUARTEL II - AEROPUERTO,6.59506E+13,6.59506E+13,-36.9138115,-60.2275544,OLAVARRIA,OLAVARRIA,BUENOS AIRES,,,,,,
ESPIGAS,6.59506E+13,6.59506E+13,-36.41227324,-60.67306947,OLAVARRIA,OLAVARRIA,BUENOS AIRES,,,,,,
RECALDE,6.59506E+13,6.59506E+13,-36.65150162,-61.08450403,OLAVARRIA,OLAVARRIA,BUENOS AIRES,,,,,,
CAMPO ELSSIRY,6.59506E+13,6.59506E+13,-37.28472315,-60.34275563,OLAVARRIA,OLAVARRIA,BUENOS AIRES,,,,,,
EL PORVENIR,6.59506E+13,6.59506E+13,-36.5143954,-60.5474023,OLAVARRIA,OLAVARRIA,BUENOS AIRES,,,,,,
SIERRAS BAYAS,6.59506E+13,6.59506E+13,-36.92252382,-60.21579254,OLAVARRIA,OLAVARRIA,BUENOS AIRES,,,,,,
OLAVARRIA,6.59506E+13,6.59506E+13,-36.89209358,-60.31800466,OLAVARRIA,OLAVARRIA,BUENOS AIRES,,,,,,
CHACRAS DE PIBUEL,6.59506E+13,6.59506E+13,-36.90814079,-60.36517613,OLAVARRIA,OLAVARRIA,BUENOS AIRES,,,,,,
VIRGEN DE LA LOMA,6.59506E+13,6.59506E+13,-36.8185482,-60.385061,OLAVARRIA,OLAVARRIA,BUENOS AIRES,,,,,,
SAN PEDRO,6.59506E+13,6.59506E+13,-36.7927946,-60.6360127,OLAVARRIA,OLAVARRIA,BUENOS AIRES,,,,,,
CALERA AVELLANEDA,6.59506E+13,6.59506E+13,-36.98256235,-60.24344894,OLAVARRIA,OLAVARRIA,BUENOS AIRES,,,,,,
EL MIRADOR,6.59506E+13,6.59506E+13,-36.81259918,-60.35093689,OLAVARRIA,OLAVARRIA,BUENOS AIRES,,,,,,
SAN QUILCO,6.59506E+13,6.59506E+13,-37.0438314,-61.1407248,OLAVARRIA,OLAVARRIA,BUENOS AIRES,,,,,,
COLONIA SAN MIGUEL,6.59506E+13,6.59506E+13,-36.94956598,-60.11089541,OLAVARRIA,OLAVARRIA,BUENOS AIRES,,,,,,
SIERRA CHICA,6.59506E+13,6.59506E+13,-36.84323822,-60.22342714,OLAVARRIA,OLAVARRIA,BUENOS AIRES,,,,,,
LAS PIEDRITAS,6.59506E+13,6.59506E+13,-36.7335474,-60.5955954,OLAVARRIA,OLAVARRIA,BUENOS AIRES,,,,,,
VILLA LA SERRANIA,6.59506E+13,6.59506E+13,-36.99036321,-60.31080812,OLAVARRIA,OLAVARRIA,BUENOS AIRES,,,,,,
ITURREGUI,6.59506E+13,6.59506E+13,-36.8293322,-61.1255567,OLAVARRIA,OLAVARRIA,BUENOS AIRES,,,,,,
VILLA MONICA,6.59506E+13,6.59506E+13,-36.8993962,-60.1455471,OLAVARRIA,OLAVARRIA,BUENOS AIRES,,,,,,
BLANCAGRANDE,6.59506E+13,6.59506E+13,-36.53288871,-60.88245491,OLAVARRIA,OLAVARRIA,BUENOS AIRES,,,,,,
CERRO SOTUYO,6.59506E+13,6.59506E+13,-36.96120198,-60.10082793,OLAVARRIA,OLAVARRIA,BUENOS AIRES,,,,,,
COLONIA HINOJO,6.59506E+13,6.59506E+13,-36.88006945,-60.1780553,OLAVARRIA,OLAVARRIA,BUENOS AIRES,,,,,,
MAPIS,6.59506E+13,6.59506E+13,-36.7705364,-61.2818613,OLAVARRIA,OLAVARRIA,BUENOS AIRES,,,,,,
CAMPO BELGRANO,6.59506E+13,6.59506E+13,-36.7250646,-60.276205,OLAVARRIA,OLAVARRIA,BUENOS AIRES,,,,,,
VILLA ARRIETA,6.59506E+13,6.59506E+13,-36.94366054,-60.15782718,OLAVARRIA,OLAVARRIA,BUENOS AIRES,,,,,,
BLANCA CHICA,6.59506E+13,6.59506E+13,-36.8410918,-60.4478581,OLAVARRIA,OLAVARRIA,BUENOS AIRES,,,,,,
SAN GREGORIO,6.59506E+13,6.59506E+13,-36.7044536,-60.4280269,OLAVARRIA,OLAVARRIA,BUENOS AIRES,,,,,,
ROCHA,6.59506E+13,6.59506E+13,-37.14576871,-60.9774844,OLAVARRIA,OLAVARRIA,BUENOS AIRES,,,,,,
HINOJO,6.59506E+13,6.59506E+13,-36.8758996,-60.14731969,OLAVARRIA,OLAVARRIA,BUENOS AIRES,,,,,,
COLONIA NIEVAS,6.59506E+13,6.59506E+13,-36.86413703,-60.08164247,OLAVARRIA,OLAVARRIA,BUENOS AIRES,,,,,,
LA PARDA,6.59506E+13,6.59506E+13,-36.6551192,-60.7438976,OLAVARRIA,OLAVARRIA,BUENOS AIRES,,,,,,
SAN JACINTO,6.59506E+13,6.59506E+13,-36.9661162,-60.2584252,OLAVARRIA,OLAVARRIA,BUENOS AIRES,,,,,,
LA PROVIDENCIA,6.59506E+13,6.59506E+13,-37.0009645,-60.1886992,OLAVARRIA,OLAVARRIA,BUENOS AIRES,,,,,,
SANTA LUISA,6.59506E+13,6.59506E+13,-37.12896537,-60.40993039,OLAVARRIA,OLAVARRIA,BUENOS AIRES,,,,,,
POURTALE,6.59506E+13,6.59506E+13,-36.97264698,-60.43630862,OLAVARRIA,OLAVARRIA,BUENOS AIRES,,,,,,
LA MODERNA,6.59506E+13,6.59506E+13,-36.977116,-60.9859857,OLAVARRIA,OLAVARRIA,BUENOS AIRES,,,,,,
SAN ANTONIO,6.59506E+13,6.59506E+13,-36.6721853,-60.5713249,OLAVARRIA,OLAVARRIA,BUENOS AIRES,,,,,,
LA CARMELITA,6.59506E+13,6.59506E+13,-36.48106076,-60.81484788,OLAVARRIA,OLAVARRIA,BUENOS AIRES,,,,,,
LOS CHILENOS,6.59506E+13,6.59506E+13,-36.9332836,-60.721619,OLAVARRIA,OLAVARRIA,BUENOS AIRES,,,,,,
CAMPO STRIEBECK,6.59506E+13,6.59506E+13,-36.79628188,-60.31172109,OLAVARRIA,OLAVARRIA,BUENOS AIRES,,,,,,
COLONIA ITURRASPE,8.20212E+14,8.20212E+14,-31.4788195,-61.62158,COLONIA ITURRASPE,CASTELLANOS,SANTA FE,,,,,,
COLONIA LA POSTA,8.20142E+14,8.20142E+14,-33.05094527,-61.48772334,AREQUITO,CASEROS,SANTA FE,,,,,,
AREQUITO,8.20142E+14,8.20142E+14,-33.14830084,-61.47133494,AREQUITO,CASEROS,SANTA FE,,,,,,
SAN JOSE DE AGUILAR,6.6161E+14,6.6161E+14,-22.34120267,-65.17109986,SANTA VICTORIA OESTE,SANTA VICTORIA,SALTA,,,,,,
PUCALLPA,6.6161E+14,6.6161E+14,-22.27221734,-64.96329924,SANTA VICTORIA OESTE,SANTA VICTORIA,SALTA,,,,,,
LIZOITE,6.6161E+14,6.6161E+14,-22.26085,-65.16353,SANTA VICTORIA OESTE,SANTA VICTORIA,SALTA,,,,,,
LA SOLEDAD,6.6161E+14,6.6161E+14,-22.21907088,-64.89133406,SANTA VICTORIA OESTE,SANTA VICTORIA,SALTA,,,,,,
HORNILLOS,6.6161E+14,6.6161E+14,-22.33043511,-65.1269968,SANTA VICTORIA OESTE,SANTA VICTORIA,SALTA,,,,,,
EL PUESTO,6.6161E+14,6.6161E+14,-22.20926263,-64.9669281,SANTA VICTORIA OESTE,SANTA VICTORIA,SALTA,,,,,,
LA FALDA,6.6161E+14,6.6161E+14,-22.2361511,-64.93101785,SANTA VICTORIA OESTE,SANTA VICTORIA,SALTA,,,,,,
RODEO PAMPA,6.6161E+14,6.6161E+14,-22.24522781,-65.07801819,SANTA VICTORIA OESTE,SANTA VICTORIA,SALTA,,,,,,
PUCARA,6.6161E+14,6.6161E+14,-22.18128,-64.95977,SANTA VICTORIA OESTE,SANTA VICTORIA,SALTA,,,,,,
LA HUERTA,6.6161E+14,6.6161E+14,-22.23831,-65.01659,SANTA VICTORIA OESTE,SANTA VICTORIA,SALTA,,,,,,
CAMPO LA PAZ,6.6161E+14,6.6161E+14,-22.36944976,-65.14637476,SANTA VICTORIA OESTE,SANTA VICTORIA,SALTA,,,,,,
PUEBLO VIEJO,6.6161E+14,6.6161E+14,-22.39523315,-64.82989502,SANTA VICTORIA OESTE,SANTA VICTORIA,SALTA,,,,,,
SAN FRANCISCO,6.6161E+14,6.6161E+14,-22.40886307,-65.25909424,SANTA VICTORIA OESTE,SANTA VICTORIA,SALTA,,,,,,
SAN JOSE,6.6161E+14,6.6161E+14,-22.33417893,-65.17589569,SANTA VICTORIA OESTE,SANTA VICTORIA,SALTA,,,,,,
ABRA DE SANTA CRUZ,6.6161E+14,6.6161E+14,-22.10361871,-65.02203878,SANTA VICTORIA OESTE,SANTA VICTORIA,SALTA,,,,,,
SANTA CRUZ,6.6161E+14,6.6161E+14,-22.1498394,-65.02141571,SANTA VICTORIA OESTE,SANTA VICTORIA,SALTA,,,,,,
CHORRO,6.6161E+14,6.6161E+14,-22.2872448,-64.92092133,SANTA VICTORIA OESTE,SANTA VICTORIA,SALTA,,,,,,
SANTA VICTORIA,6.6161E+14,6.6161E+14,-22.2294615,-64.95032555,SANTA VICTORIA OESTE,SANTA VICTORIA,SALTA,,,,,,
ABRA DE SAN ANTONIO,6.6161E+14,6.6161E+14,-22.17502,-64.93502,SANTA VICTORIA OESTE,SANTA VICTORIA,SALTA,,,,,,
ANTIGAL,6.6161E+14,6.6161E+14,-22.16734,-64.9073,SANTA VICTORIA OESTE,SANTA VICTORIA,SALTA,,,,,,
LAGUNA,6.6161E+14,6.6161E+14,-22.37389946,-65.17874146,SANTA VICTORIA OESTE,SANTA VICTORIA,SALTA,,,,,,
SAN FELIPE,6.6161E+14,6.6161E+14,-22.30340389,-64.98355327,SANTA VICTORIA OESTE,SANTA VICTORIA,SALTA,,,,,,
SANTA CRUZ DE AGUILAR,6.6161E+14,6.6161E+14,-22.15450164,-65.0182986,SANTA VICTORIA OESTE,SANTA VICTORIA,SALTA,,,,,,
MECOYITA,6.6161E+14,6.6161E+14,-22.12536665,-64.90085004,SANTA VICTORIA OESTE,SANTA VICTORIA,SALTA,,,,,,
ACOYTE,6.6161E+14,6.6161E+14,-22.26257081,-64.99934259,SANTA VICTORIA OESTE,SANTA VICTORIA,SALTA,,,,,,
RIO PIEDRAS,6.6112E+14,6.6112E+14,-25.32118188,-64.91732943,RIO PIEDRAS,METAN,SALTA,,,,,,
LUMBRERAS,6.6112E+14,6.6112E+14,-25.21725758,-64.93068615,RIO PIEDRAS,METAN,SALTA,,,,,,
ARENALES,6.6112E+14,6.6112E+14,-25.14554787,-65.15400696,RIO PIEDRAS,METAN,SALTA,,,,,,
SAN RAMIREZ,3.00709E+14,3.00709E+14,-30.46341428,-59.34085823,SAN RAMIREZ,LA PAZ,ENTRE RÍOS,,,,,,
LIHUEL CALEL,4.2084E+14,4.2084E+14,-38.01481736,-65.58481895,PUELCHES,CURACO,LA PAMPA,,,,,,
PUELCHES,4.2042E+14,4.2042E+14,-38.14377223,-65.91027908,PUELCHES,CURACO,LA PAMPA,,,,,,
GENERAL LAGOS,8.20843E+14,8.20843E+14,-33.11215889,-60.56657378,GENERAL LAGOS,ROSARIO,SANTA FE,,,,,,
PAMPA LA PORTEÑA,2.2049E+14,2.2049E+14,-26.89174656,-61.11934234,CORZUELA,GENERAL BELGRANO,CHACO,,,,,,
CORZUELA NORTE,2.2049E+14,2.2049E+14,-26.89782559,-61.02852309,CORZUELA,GENERAL BELGRANO,CHACO,,,,,,
SAN ANTONIO,2.2049E+14,2.2049E+14,-26.84515126,-61.15683164,CORZUELA,GENERAL BELGRANO,CHACO,,,,,,
COLONIA JUAN LAVALLE,2.2049E+14,2.2049E+14,-27.10585501,-60.85750671,CORZUELA,GENERAL BELGRANO,CHACO,,,,,,
PAMPA ZAPPA,2.2049E+14,2.2049E+14,-26.95941313,-61.07284844,CORZUELA,GENERAL BELGRANO,CHACO,,,,,,
COLONIA SAN LORENZO,2.2049E+14,2.2049E+14,-26.9685688,-60.87346268,CORZUELA,GENERAL BELGRANO,CHACO,,,,,,
CAMPO CANTON,2.2049E+14,2.2049E+14,-26.96507701,-61.03071359,CORZUELA,GENERAL BELGRANO,CHACO,,,,,,
PAMPA ALSINA,2.2049E+14,2.2049E+14,-26.99396507,-60.85775195,CORZUELA,GENERAL BELGRANO,CHACO,,,,,,
CORZUELA,2.2049E+14,2.2049E+14,-26.95567601,-60.97075741,CORZUELA,GENERAL BELGRANO,CHACO,,,,,,
LA CIENAGA,7.40636E+14,7.40636E+14,-32.41791916,-65.48777771,LAS AGUADAS,LIBERTADOR GENERAL SAN MARTÍN,SAN LUIS,,,,,,
LAS AGUADAS,7.40636E+14,7.40636E+14,-32.37635805,-65.50120414,LAS AGUADAS,LIBERTADOR GENERAL SAN MARTÍN,SAN LUIS,,,,,,
TALA VERDE,7.40636E+14,7.40636E+14,-32.40896557,-65.56209159,LAS AGUADAS,LIBERTADOR GENERAL SAN MARTÍN,SAN LUIS,,,,,,
EL PUESTO,7.40636E+14,7.40636E+14,-32.34642911,-65.46720015,LAS AGUADAS,LIBERTADOR GENERAL SAN MARTÍN,SAN LUIS,,,,,,
LOS MOLLES,7.40636E+14,7.40636E+14,-32.35809326,-65.52952576,LAS AGUADAS,LIBERTADOR GENERAL SAN MARTÍN,SAN LUIS,,,,,,
CAÑADON SECO,7.80145E+14,7.80145E+14,-46.55884577,-67.61685637,CAÑADON SECO,DESEADO,SANTA CRUZ,,,,,,
LA ESCALERA,4.6126E+14,4.6126E+14,-29.14089012,-67.1574707,SANAGASTA,SANAGASTA,LA RIOJA,,,,,,
LA TORRECITA,4.6126E+14,4.6126E+14,-29.17715073,-67.04329681,SANAGASTA,SANAGASTA,LA RIOJA,,,,,,
HUACO,4.6126E+14,4.6126E+14,-29.16052455,-67.09195563,SANAGASTA,SANAGASTA,LA RIOJA,,,,,,
VILLA SANAGASTA,4.6126E+14,4.6126E+14,-29.30644915,-67.04140974,SANAGASTA,SANAGASTA,LA RIOJA,,,,,,
ADROGUE,6.028E+13,6.028E+13,-34.80155807,-58.39146772,ALMIRANTE BROWN,ALMIRANTE BROWN,BUENOS AIRES,,,,,,
JOSE MARMOL,6.028E+13,6.028E+13,-34.78514425,-58.36814756,ALMIRANTE BROWN,ALMIRANTE BROWN,BUENOS AIRES,,,,,,
SAN JOSE,6.028E+13,6.028E+13,-34.76737719,-58.34327714,ALMIRANTE BROWN,ALMIRANTE BROWN,BUENOS AIRES,,,,,,
RAFAEL CALZADA,6.028E+13,6.028E+13,-34.79113675,-58.35059818,ALMIRANTE BROWN,ALMIRANTE BROWN,BUENOS AIRES,,,,,,
CLAYPOLE,6.028E+13,6.028E+13,-34.80447591,-58.34478255,ALMIRANTE BROWN,ALMIRANTE BROWN,BUENOS AIRES,,,,,,
MINISTRO RIVADAVIA,6.028E+13,6.028E+13,-34.8556895,-58.36164654,ALMIRANTE BROWN,ALMIRANTE BROWN,BUENOS AIRES,,,,,,
BURZACO,6.028E+13,6.028E+13,-34.83154159,-58.39868749,ALMIRANTE BROWN,ALMIRANTE BROWN,BUENOS AIRES,,,,,,
MALVINAS ARGENTINAS,6.028E+13,6.028E+13,-34.81895832,-58.42356106,ALMIRANTE BROWN,ALMIRANTE BROWN,BUENOS AIRES,,,,,,
GLEW,6.028E+13,6.028E+13,-34.88601142,-58.38183018,ALMIRANTE BROWN,ALMIRANTE BROWN,BUENOS AIRES,,,,,,
LONGCHAMPS,6.028E+13,6.028E+13,-34.86094503,-58.38914769,ALMIRANTE BROWN,ALMIRANTE BROWN,BUENOS AIRES,,,,,,
DON ORIONE,6.028E+13,6.028E+13,-34.82107516,-58.3447458,ALMIRANTE BROWN,ALMIRANTE BROWN,BUENOS AIRES,,,,,,
SAN FRANCISCO SOLANO,6.028E+13,6.028E+13,-34.78667436,-58.32193635,ALMIRANTE BROWN,ALMIRANTE BROWN,BUENOS AIRES,,,,,,
BELL VILLE,1.41822E+14,1.41822E+14,-32.62856008,-62.68911491,BELL VILLE,UNION,CÓRDOBA,,,,,,
COLONIA COMPIANI,1.41822E+14,1.41822E+14,-32.567857,-62.6776939,BELL VILLE,UNION,CÓRDOBA,,,,,,
CALETA OLIVIA,7.8014E+14,7.8014E+14,-46.44594923,-67.5251565,CALETA OLIVIA,DESEADO,SANTA CRUZ,,,,,,
NUEVA VIZCAYA,3.00359E+14,3.00359E+14,-30.96851498,-58.61274793,NUEVA VIZCAYA,FEDERAL,ENTRE RÍOS,,,,,,
TORTUGUITAS,6.41204E+13,6.41204E+13,-34.4918484,-58.78637803,JOSE C PAZ,JOSE C PAZ,BUENOS AIRES,,,,,,
DEL VISO,6.41204E+13,6.41204E+13,-34.4804958,-58.8042589,JOSE C PAZ,JOSE C PAZ,BUENOS AIRES,,,,,,
JOSE C. PAZ,6.41204E+13,6.41204E+13,-34.5211612,-58.77088111,JOSE C PAZ,JOSE C PAZ,BUENOS AIRES,,,,,,
GARZA,8.61826E+14,8.61826E+14,-28.16406406,-63.46934561,GARZA,SARMIENTO,SANTIAGO DEL ESTERO,,,,,,
LA VIGIA,6.68607E+13,6.68607E+13,-34.3064955,-60.6245184,ROJAS,ROJAS,BUENOS AIRES,,,,,,
LA VUELTA,6.68607E+13,6.68607E+13,-34.3166668,-60.7466182,ROJAS,ROJAS,BUENOS AIRES,,,,,,
ROBERTO CANO,6.68607E+13,6.68607E+13,-34.08765152,-60.6672564,ROJAS,ROJAS,BUENOS AIRES,,,,,,
SANTA FELISA,6.68607E+13,6.68607E+13,-34.2870114,-60.6908135,ROJAS,ROJAS,BUENOS AIRES,,,,,,
LA SOLEDAD,6.68607E+13,6.68607E+13,-34.307846,-61.0004538,ROJAS,ROJAS,BUENOS AIRES,,,,,,
LA CALDERA,6.68607E+13,6.68607E+13,-34.18149567,-60.79748154,ROJAS,ROJAS,BUENOS AIRES,,,,,,
LOS INDIOS,6.68607E+13,6.68607E+13,-34.37356961,-60.65237103,ROJAS,ROJAS,BUENOS AIRES,,,,,,
LA CONCEPCION,6.68607E+13,6.68607E+13,-34.20364677,-60.95285202,ROJAS,ROJAS,BUENOS AIRES,,,,,,
LA ROJERA,6.68607E+13,6.68607E+13,-34.1578906,-60.7016991,ROJAS,ROJAS,BUENOS AIRES,,,,,,
LA BEBA,6.68607E+13,6.68607E+13,-34.15443879,-61.01287112,ROJAS,ROJAS,BUENOS AIRES,,,,,,
BARRIO LAS MARGARITAS,6.68607E+13,6.68607E+13,-34.19323742,-60.6820265,ROJAS,ROJAS,BUENOS AIRES,,,,,,
LAS CARABELAS,6.68607E+13,6.68607E+13,-34.03810027,-60.86852642,ROJAS,ROJAS,BUENOS AIRES,,,,,,
LAS POLVAREDAS,6.68607E+13,6.68607E+13,-34.1614703,-60.6092371,ROJAS,ROJAS,BUENOS AIRES,,,,,,
LA VUELTA CHICA,6.68607E+13,6.68607E+13,-34.35242462,-60.7453537,ROJAS,ROJAS,BUENOS AIRES,,,,,,
HUNTER,6.68607E+13,6.68607E+13,-34.2433108,-60.532499,ROJAS,ROJAS,BUENOS AIRES,,,,,,
VILLA MANUEL POMAR,6.68607E+13,6.68607E+13,-33.91595088,-60.93793802,ROJAS,ROJAS,BUENOS AIRES,,,,,,
LA TIGRA,6.68607E+13,6.68607E+13,-34.00621414,-60.98638916,ROJAS,ROJAS,BUENOS AIRES,,,,,,
ROJAS,6.68607E+13,6.68607E+13,-34.18722923,-60.71794119,ROJAS,ROJAS,BUENOS AIRES,,,,,,
ESTACION SOL DE MAYO,6.68607E+13,6.68607E+13,-34.26894485,-60.87177734,ROJAS,ROJAS,BUENOS AIRES,,,,,,
RAFAEL OBLIGADO,6.68607E+13,6.68607E+13,-34.35881325,-60.78456933,ROJAS,ROJAS,BUENOS AIRES,,,,,,
VILLA PARQUE CECIR,6.68607E+13,6.68607E+13,-34.1707176,-60.74383368,ROJAS,ROJAS,BUENOS AIRES,,,,,,
LA VERDE,6.68607E+13,6.68607E+13,-34.0764093,-60.9715417,ROJAS,ROJAS,BUENOS AIRES,,,,,,
SAN BASILIO,6.68607E+13,6.68607E+13,-34.4720436,-60.6832105,ROJAS,ROJAS,BUENOS AIRES,,,,,,
VILLA GENERAL MITRE,8.6007E+14,8.6007E+14,-29.13963572,-62.56239605,PINTO,AGUIRRE,SANTIAGO DEL ESTERO,,,,,,
SAN ROQUE,1.40072E+14,1.40072E+14,-32.2162493,-64.6720222,AMBOY,CALAMUCHITA,CÓRDOBA,,,,,,
CERRO PELADO,1.40072E+14,1.40072E+14,-32.2183924,-64.6415206,AMBOY,CALAMUCHITA,CÓRDOBA,,,,,,
AMBOY,1.40072E+14,1.40072E+14,-32.17591652,-64.57654832,AMBOY,CALAMUCHITA,CÓRDOBA,,,,,,
FLORIDA NEGRA,7.8042E+14,7.8042E+14,-48.42013168,-67.35490418,AREA SIN GOBIERNO,MAGALLANES,SANTA CRUZ,,,,,,
BELLA VISTA,7.8042E+14,7.8042E+14,-49.06422424,-68.32466888,AREA SIN GOBIERNO,MAGALLANES,SANTA CRUZ,,,,,,
EL SALADO,7.8042E+14,7.8042E+14,-48.73167419,-67.70140839,AREA SIN GOBIERNO,MAGALLANES,SANTA CRUZ,,,,,,
SUARDI,8.20914E+14,8.20914E+14,-30.53614535,-61.96168058,SUARDI,SAN CRISTOBAL,SANTA FE,,,,,,
COLONIA SAN JOSE,3.80946E+14,3.80946E+14,-23.40235447,-65.39104516,HUACALERA,TILCARA,JUJUY,,,,,,
ALONSO,3.80946E+14,3.80946E+14,-23.44775,-65.24884,HUACALERA,TILCARA,JUJUY,,,,,,
VOLCAN DE YACORAITE,3.80946E+14,3.80946E+14,-23.326789,-65.47565899,HUACALERA,TILCARA,JUJUY,,,,,,
YACORAITE,3.80946E+14,3.80946E+14,-23.40235447,-65.39104516,HUACALERA,TILCARA,JUJUY,,,,,,
HUACALERA,3.80946E+14,3.80946E+14,-23.43416426,-65.35133414,HUACALERA,TILCARA,JUJUY,,,,,,
LA TOMA,7.4021E+14,7.4021E+14,-33.05443762,-65.62269821,LA TOMA,CORONEL PRINGLES,SAN LUIS,,,,,,
MAQUINCHAO,6.2091E+14,6.2091E+14,-41.24751656,-68.70034107,MAQUINCHAO,25 DE MAYO,RÍO NEGRO,,,,,,
CALLE ANGOSTA,6.30103E+13,6.30103E+13,-35.83441,-58.47736003,GENERAL BELGRANO,GENERAL BELGRANO,BUENOS AIRES,,,,,,
NEWTON,6.30103E+13,6.30103E+13,-35.9302358,-58.7735013,GENERAL BELGRANO,GENERAL BELGRANO,BUENOS AIRES,,,,,,
SAN MARTIN,6.30103E+13,6.30103E+13,-35.8099286,-58.7384442,GENERAL BELGRANO,GENERAL BELGRANO,BUENOS AIRES,,,,,,
CHAS,6.30103E+13,6.30103E+13,-35.8738986,-58.5835485,GENERAL BELGRANO,GENERAL BELGRANO,BUENOS AIRES,,,,,,
GENERAL BELGRANO,6.30103E+13,6.30103E+13,-35.76945774,-58.49446151,GENERAL BELGRANO,GENERAL BELGRANO,BUENOS AIRES,,,,,,
LA VERDE,6.30103E+13,6.30103E+13,-35.7960497,-58.5902581,GENERAL BELGRANO,GENERAL BELGRANO,BUENOS AIRES,,,,,,
GORCHS,6.30103E+13,6.30103E+13,-35.67337296,-58.95829996,GENERAL BELGRANO,GENERAL BELGRANO,BUENOS AIRES,,,,,,
EL DESCANSO,6.30103E+13,6.30103E+13,-35.78064575,-58.49520841,GENERAL BELGRANO,GENERAL BELGRANO,BUENOS AIRES,,,,,,
COLONIA EL SALADO,6.30103E+13,6.30103E+13,-35.84859,-58.41628003,GENERAL BELGRANO,GENERAL BELGRANO,BUENOS AIRES,,,,,,
LAVALLE,1.8091E+14,1.8091E+14,-29.02498125,-59.18185701,LAVALLE,LAVALLE,CORRIENTES,,,,,,
PUERTO VIEJO,1.8091E+14,1.8091E+14,-29.0035214,-59.1726468,LAVALLE,LAVALLE,CORRIENTES,,,,,,
LA LOMA,1.8091E+14,1.8091E+14,-28.9843867,-59.1486856,LAVALLE,LAVALLE,CORRIENTES,,,,,,
RINCON DE SANTA LUCIA,1.8091E+14,1.8091E+14,-29.02399735,-59.1433639,LAVALLE,LAVALLE,CORRIENTES,,,,,,
RINCON DE SOTO,1.8091E+14,1.8091E+14,-29.065367,-59.2059937,LAVALLE,LAVALLE,CORRIENTES,,,,,,
ENRIQUE URIEN,2.2098E+14,2.2098E+14,-27.55872515,-60.52599075,ENRIQUE URIEN,MAYOR LUIS J FONTANA,CHACO,,,,,,
LA VIRUELA,2.2098E+14,2.2098E+14,-27.86480153,-60.36781951,ENRIQUE URIEN,MAYOR LUIS J FONTANA,CHACO,,,,,,
LA MANUELA,2.2098E+14,2.2098E+14,-27.87571085,-60.64802151,ENRIQUE URIEN,MAYOR LUIS J FONTANA,CHACO,,,,,,
LA CARLOTA,2.2098E+14,2.2098E+14,-27.64495658,-60.70773077,ENRIQUE URIEN,MAYOR LUIS J FONTANA,CHACO,,,,,,
CAMPO COLLA,8.20703E+14,8.20703E+14,-31.768503,-61.3988686,SANTA CLARA DE BUENA VISTA,LAS COLONIAS,SANTA FE,,,,,,
LAS HIGUERITAS,8.20703E+14,8.20703E+14,-31.8169489,-61.1663277,SANTA CLARA DE BUENA VISTA,LAS COLONIAS,SANTA FE,,,,,,
CORONEL RODRIGUEZ,8.20703E+14,8.20703E+14,-31.7032972,-61.2418905,SANTA CLARA DE BUENA VISTA,LAS COLONIAS,SANTA FE,,,,,,
SANTA CLARA DE BUENA VISTA,8.20703E+14,8.20703E+14,-31.76579633,-61.32102364,SANTA CLARA DE BUENA VISTA,LAS COLONIAS,SANTA FE,,,,,,
EL MOJON,1.4112E+14,1.4112E+14,-30.08849498,-63.45358366,AREA SIN GOBIERNO,RIO SECO,CÓRDOBA,,,,,,
EL GUANACO,1.4112E+14,1.4112E+14,-29.95477877,-63.33326979,AREA SIN GOBIERNO,RIO SECO,CÓRDOBA,,,,,,
LA MAZA,1.4112E+14,1.4112E+14,-30.14883423,-63.71766281,AREA SIN GOBIERNO,RIO SECO,CÓRDOBA,,,,,,
SANTA CATALINA,1.4112E+14,1.4112E+14,-29.89970017,-63.5257721,AREA SIN GOBIERNO,RIO SECO,CÓRDOBA,,,,,,
LA PIEDRA BLANCA,1.4112E+14,1.4112E+14,-29.95899237,-63.82939238,AREA SIN GOBIERNO,RIO SECO,CÓRDOBA,,,,,,
AGUA DE ORO,1.4112E+14,1.4112E+14,-29.8135599,-63.75524,AREA SIN GOBIERNO,RIO SECO,CÓRDOBA,,,,,,
POZO DE MOLINA,1.4112E+14,1.4112E+14,-29.95120621,-63.0254364,AREA SIN GOBIERNO,RIO SECO,CÓRDOBA,,,,,,
POZO DEL SIMBOL,1.4112E+14,1.4112E+14,-29.85239557,-63.08607812,AREA SIN GOBIERNO,RIO SECO,CÓRDOBA,,,,,,
EL JORDAN,1.4112E+14,1.4112E+14,-29.89233017,-63.82764816,AREA SIN GOBIERNO,RIO SECO,CÓRDOBA,,,,,,
LA BARRANCA,1.4112E+14,1.4112E+14,-29.67079301,-63.72388041,AREA SIN GOBIERNO,RIO SECO,CÓRDOBA,,,,,,
POZO DE LAS OLLAS,1.4112E+14,1.4112E+14,-30.01728917,-63.05307312,AREA SIN GOBIERNO,RIO SECO,CÓRDOBA,,,,,,
PUNTA DEL MONTE,1.4112E+14,1.4112E+14,-29.72079132,-63.58204419,AREA SIN GOBIERNO,RIO SECO,CÓRDOBA,,,,,,
LA VICTORIA,1.4112E+14,1.4112E+14,-30.1392231,-63.43808746,AREA SIN GOBIERNO,RIO SECO,CÓRDOBA,,,,,,
SAN MIGUEL,1.4112E+14,1.4112E+14,-29.78716469,-63.73150635,AREA SIN GOBIERNO,RIO SECO,CÓRDOBA,,,,,,
ALTO DE FIERRO,1.4112E+14,1.4112E+14,-29.70109921,-63.61469291,AREA SIN GOBIERNO,RIO SECO,CÓRDOBA,,,,,,
SANTA ISABEL,1.4112E+14,1.4112E+14,-29.77304268,-63.45576306,AREA SIN GOBIERNO,RIO SECO,CÓRDOBA,,,,,,
LA PENCA,1.4112E+14,1.4112E+14,-30.1320698,-63.5176265,AREA SIN GOBIERNO,RIO SECO,CÓRDOBA,,,,,,
SAN ANTONIO,1.4112E+14,1.4112E+14,-29.75729439,-63.39076668,AREA SIN GOBIERNO,RIO SECO,CÓRDOBA,,,,,,
LA VICTORIA OESTE,1.4112E+14,1.4112E+14,-30.18236581,-63.48445655,AREA SIN GOBIERNO,RIO SECO,CÓRDOBA,,,,,,
CAMPO GRANDE,1.4112E+14,1.4112E+14,-30.04917014,-63.54454713,AREA SIN GOBIERNO,RIO SECO,CÓRDOBA,,,,,,
LA VICTORIA (E),1.4112E+14,1.4112E+14,-30.13508312,-63.44294093,AREA SIN GOBIERNO,RIO SECO,CÓRDOBA,,,,,,
3 DE MAYO,5.4077E+14,5.4077E+14,-26.78501255,-54.90115103,GARUHAPE,LIBERTADOR GENERAL SAN MARTÍN,MISIONES,,,,,,
GARUHAPE,5.4077E+14,5.4077E+14,-26.81868288,-54.95761201,GARUHAPE,LIBERTADOR GENERAL SAN MARTÍN,MISIONES,,,,,,
SAN MIGUEL,5.4077E+14,5.4077E+14,-26.8533367,-54.88929241,GARUHAPE,LIBERTADOR GENERAL SAN MARTÍN,MISIONES,,,,,,
PUERTO GARUHAPE,5.4077E+14,5.4077E+14,-26.79389572,-54.96649551,GARUHAPE,LIBERTADOR GENERAL SAN MARTÍN,MISIONES,,,,,,
SALSACATE,1.40771E+14,1.40771E+14,-31.31516168,-65.09102606,SALSACATE,POCHO,CÓRDOBA,,,,,,
VILLA VISO,1.40771E+14,1.40771E+14,-31.35705165,-65.10195072,SALSACATE,POCHO,CÓRDOBA,,,,,,
CASA BLANCA,1.40771E+14,1.40771E+14,-31.37372505,-65.158272,SALSACATE,POCHO,CÓRDOBA,,,,,,
TANINGA,1.40771E+14,1.40771E+14,-31.34540005,-65.08011687,SALSACATE,POCHO,CÓRDOBA,,,,,,
PUEBLO VIEJO,1.4182E+14,1.4182E+14,-32.84722519,-62.83419037,AREA SIN GOBIERNO,UNION,CÓRDOBA,,,,,,
SAN EUSEBIO,1.4182E+14,1.4182E+14,-32.2378273,-62.48749924,AREA SIN GOBIERNO,UNION,CÓRDOBA,,,,,,
LAS LAGUNITAS,1.4182E+14,1.4182E+14,-32.72463603,-62.92520088,AREA SIN GOBIERNO,UNION,CÓRDOBA,,,,,,
LA TIGRA,1.4182E+14,1.4182E+14,-32.03687222,-62.46890289,AREA SIN GOBIERNO,UNION,CÓRDOBA,,,,,,
COLONIA LA VERDE,1.4182E+14,1.4182E+14,-32.76142685,-62.4990827,AREA SIN GOBIERNO,UNION,CÓRDOBA,,,,,,
COLONIA MARCOS SASTRE,1.4182E+14,1.4182E+14,-32.53989113,-62.4171492,AREA SIN GOBIERNO,UNION,CÓRDOBA,,,,,,
CAMPO LOS CORRALITOS,1.4182E+14,1.4182E+14,-32.9425718,-62.6497689,AREA SIN GOBIERNO,UNION,CÓRDOBA,,,,,,
COLONIA EL DORADO,1.4182E+14,1.4182E+14,-33.8033612,-62.8044841,AREA SIN GOBIERNO,UNION,CÓRDOBA,,,,,,
CAMPO LOS ALGARROBOS,1.4182E+14,1.4182E+14,-32.95159581,-62.50754552,AREA SIN GOBIERNO,UNION,CÓRDOBA,,,,,,
COLONIA LA CONCORDIA,1.4182E+14,1.4182E+14,-32.6640192,-62.7458186,AREA SIN GOBIERNO,UNION,CÓRDOBA,,,,,,
SAN MELITON,1.4182E+14,1.4182E+14,-33.55144882,-62.73400497,AREA SIN GOBIERNO,UNION,CÓRDOBA,,,,,,
CAYUQUEO,1.4182E+14,1.4182E+14,-32.8009107,-63.1176321,AREA SIN GOBIERNO,UNION,CÓRDOBA,,,,,,
CAMPO COSTA,1.4182E+14,1.4182E+14,-33.4792553,-62.9564065,AREA SIN GOBIERNO,UNION,CÓRDOBA,,,,,,
COLONIA LA UNION,1.4182E+14,1.4182E+14,-32.97055816,-62.86825557,AREA SIN GOBIERNO,UNION,CÓRDOBA,,,,,,
LA HERRADURA,1.4182E+14,1.4182E+14,-32.54858018,-63.11960014,AREA SIN GOBIERNO,UNION,CÓRDOBA,,,,,,
SAN SEVERO,1.4182E+14,1.4182E+14,-33.53832547,-63.04792768,AREA SIN GOBIERNO,UNION,CÓRDOBA,,,,,,
CAMPO SANTA RITA,1.4182E+14,1.4182E+14,-32.66210149,-62.4508944,AREA SIN GOBIERNO,UNION,CÓRDOBA,,,,,,
COLONIA 10 DE MAYO,1.4182E+14,1.4182E+14,-32.52011289,-62.50792335,AREA SIN GOBIERNO,UNION,CÓRDOBA,,,,,,
COLONIA EL BALQUIN,1.4182E+14,1.4182E+14,-33.594585,-62.9826062,AREA SIN GOBIERNO,UNION,CÓRDOBA,,,,,,
COLONIA EL PIQUILLIN,1.4182E+14,1.4182E+14,-32.7836607,-62.8077245,AREA SIN GOBIERNO,UNION,CÓRDOBA,,,,,,
COLONIA CORRAL DEL BAJO,1.4182E+14,1.4182E+14,-32.0755992,-62.800031,AREA SIN GOBIERNO,UNION,CÓRDOBA,,,,,,
CAMPO LAS CHACRAS,1.4182E+14,1.4182E+14,-32.7740956,-62.72142397,AREA SIN GOBIERNO,UNION,CÓRDOBA,,,,,,
CUATRO CAMINOS,1.4182E+14,1.4182E+14,-32.71482226,-62.59230077,AREA SIN GOBIERNO,UNION,CÓRDOBA,,,,,,
POTRO MUERTO,1.4182E+14,1.4182E+14,-32.12021937,-62.4280296,AREA SIN GOBIERNO,UNION,CÓRDOBA,,,,,,
EL UCLE,1.4182E+14,1.4182E+14,-32.10600775,-62.66222929,AREA SIN GOBIERNO,UNION,CÓRDOBA,,,,,,
CORRAL DEL BAJO,1.4182E+14,1.4182E+14,-32.07373047,-62.80303574,AREA SIN GOBIERNO,UNION,CÓRDOBA,,,,,,
CAMPO VIONNET,1.4182E+14,1.4182E+14,-32.47595547,-63.02852347,AREA SIN GOBIERNO,UNION,CÓRDOBA,,,,,,
COLONIA PICO CHACO,1.4182E+14,1.4182E+14,-32.38023581,-62.78954648,AREA SIN GOBIERNO,UNION,CÓRDOBA,,,,,,
RAMON J. CARCANO,1.4182E+14,1.4182E+14,-32.49110891,-63.10280751,AREA SIN GOBIERNO,UNION,CÓRDOBA,,,,,,
COLONIA LA LOLA,1.4182E+14,1.4182E+14,-33.73089562,-62.78514867,AREA SIN GOBIERNO,UNION,CÓRDOBA,,,,,,
COLONIA LA CELINA,1.4182E+14,1.4182E+14,-33.7998069,-62.9152446,AREA SIN GOBIERNO,UNION,CÓRDOBA,,,,,,
COLONIA EL DESCANSO,1.4182E+14,1.4182E+14,-32.18816605,-62.72288296,AREA SIN GOBIERNO,UNION,CÓRDOBA,,,,,,
CNIA NORTE,1.4182E+14,1.4182E+14,-32.5153117,-62.8032808,AREA SIN GOBIERNO,UNION,CÓRDOBA,,,,,,
COLONIA ESPERANZA,1.4182E+14,1.4182E+14,-32.6391643,-62.8533637,AREA SIN GOBIERNO,UNION,CÓRDOBA,,,,,,
COLONIA CORRAL DE GUARDIA,1.4182E+14,1.4182E+14,-32.03238132,-62.63168946,AREA SIN GOBIERNO,UNION,CÓRDOBA,,,,,,
CAMPO SANTA ELENA,1.4182E+14,1.4182E+14,-33.13712349,-62.95998299,AREA SIN GOBIERNO,UNION,CÓRDOBA,,,,,,
COLONIA LA LEONCITA,1.4182E+14,1.4182E+14,-32.11839412,-62.56281224,AREA SIN GOBIERNO,UNION,CÓRDOBA,,,,,,
CAMPO SAN ELIAS,1.4182E+14,1.4182E+14,-33.23423419,-62.87657158,AREA SIN GOBIERNO,UNION,CÓRDOBA,,,,,,
CAMPO LA LUISITA,1.4182E+14,1.4182E+14,-32.9980972,-62.7185441,AREA SIN GOBIERNO,UNION,CÓRDOBA,,,,,,
CAMPO LOS GALGOS,1.4182E+14,1.4182E+14,-33.15262159,-62.68229109,AREA SIN GOBIERNO,UNION,CÓRDOBA,,,,,,
CAMPO CRESPO-P/BALLESTERS,1.4182E+14,1.4182E+14,-32.4378502,-62.9397616,AREA SIN GOBIERNO,UNION,CÓRDOBA,,,,,,
CAMPO YANZI,1.4182E+14,1.4182E+14,-32.46431231,-62.74252904,AREA SIN GOBIERNO,UNION,CÓRDOBA,,,,,,
COLONIA SANTA RITA,1.4182E+14,1.4182E+14,-33.03656328,-63.019451,AREA SIN GOBIERNO,UNION,CÓRDOBA,,,,,,
LUCA,1.4042E+14,1.4042E+14,-32.54019796,-63.47625364,LUCA,GENERAL SAN MARTIN,CÓRDOBA,,,,,,
ENRIQUE CARBO,3.0056E+14,3.0056E+14,-33.14784836,-59.20894011,ENRIQUE CARBO,GUALEGUAYCHU,ENTRE RÍOS,,,,,,
ALARCON,3.0056E+14,3.0056E+14,-33.15450509,-58.98890113,ENRIQUE CARBO,GUALEGUAYCHU,ENTRE RÍOS,,,,,,
GENERAL RACEDO,3.00219E+14,3.00219E+14,-31.98401645,-60.40839123,EL CARMEN - ESTACION RACEDO,DIAMANTE,ENTRE RÍOS,,,,,,
CARCEL,3.80986E+14,3.80986E+14,-23.81740761,-65.53327179,TUMBAYA,TUMBAYA,JUJUY,,,,,,
PUNTA CORRAL,3.80986E+14,3.80986E+14,-23.71728325,-65.3873291,TUMBAYA,TUMBAYA,JUJUY,,,,,,
COIRURO,3.80986E+14,3.80986E+14,-23.88771629,-65.45774078,TUMBAYA,TUMBAYA,JUJUY,,,,,,
AGUA BENDITA,3.80986E+14,3.80986E+14,-23.83205605,-65.47557831,TUMBAYA,TUMBAYA,JUJUY,,,,,,
TUMBAYA,3.80986E+14,3.80986E+14,-23.85230341,-65.46725467,TUMBAYA,TUMBAYA,JUJUY,,,,,,
TUMBAYA GRANDE,3.80986E+14,3.80986E+14,-23.83077,-65.48998,TUMBAYA,TUMBAYA,JUJUY,,,,,,
LEONES,1.40631E+14,1.40631E+14,-32.65839141,-62.29991463,LEONES,MARCOS JUAREZ,CÓRDOBA,,,,,,
EL PALMAR,2.2063E+14,2.2063E+14,-25.2898669,-60.68620893,MIRAFLORES,GENERAL GUEMES,CHACO,,,,,,
GUEMES,2.2063E+14,2.2063E+14,-25.77302557,-60.81551973,MIRAFLORES,GENERAL GUEMES,CHACO,,,,,,
LA ARMONIA,2.2063E+14,2.2063E+14,-25.18170007,-61.09499711,MIRAFLORES,GENERAL GUEMES,CHACO,,,,,,
EL QUEBRACHO,2.2063E+14,2.2063E+14,-25.23779092,-61.28037249,MIRAFLORES,GENERAL GUEMES,CHACO,,,,,,
LOTE 126,2.2063E+14,2.2063E+14,-25.67820965,-60.95518998,MIRAFLORES,GENERAL GUEMES,CHACO,,,,,,
EL DESCANSO,2.2063E+14,2.2063E+14,-25.64091118,-61.01546461,MIRAFLORES,GENERAL GUEMES,CHACO,,,,,,
LA GRINGA,2.2063E+14,2.2063E+14,-25.3091259,-60.98751068,MIRAFLORES,GENERAL GUEMES,CHACO,,,,,,
LOS CIENAGOS,2.2063E+14,2.2063E+14,-25.14161515,-61.25801094,MIRAFLORES,GENERAL GUEMES,CHACO,,,,,,
4 DE FEBRERO,2.2063E+14,2.2063E+14,-25.57410369,-60.79186937,MIRAFLORES,GENERAL GUEMES,CHACO,,,,,,
LOS PEREYRAS,2.2063E+14,2.2063E+14,-25.47515938,-61.1766573,MIRAFLORES,GENERAL GUEMES,CHACO,,,,,,
TORRE DEL MIRADOR,2.2063E+14,2.2063E+14,-25.56377465,-61.29401769,MIRAFLORES,GENERAL GUEMES,CHACO,,,,,,
MONTE CASEROS,2.2063E+14,2.2063E+14,-25.59411486,-61.09431164,MIRAFLORES,GENERAL GUEMES,CHACO,,,,,,
POZO EL ZAPALLAR,2.2063E+14,2.2063E+14,-25.27138135,-60.85359436,MIRAFLORES,GENERAL GUEMES,CHACO,,,,,,
EL MOJO,2.2063E+14,2.2063E+14,-25.2134447,-60.64117836,MIRAFLORES,GENERAL GUEMES,CHACO,,,,,,
CRUCE PEÑALOZA,2.2063E+14,2.2063E+14,-25.4759368,-61.09373572,MIRAFLORES,GENERAL GUEMES,CHACO,,,,,,
LAS MARGARITAS,2.2063E+14,2.2063E+14,-25.67516433,-61.19567793,MIRAFLORES,GENERAL GUEMES,CHACO,,,,,,
ROSALES,2.2063E+14,2.2063E+14,-25.2980938,-61.17424011,MIRAFLORES,GENERAL GUEMES,CHACO,,,,,,
CENTRAL NORTE,2.2063E+14,2.2063E+14,-25.61122223,-60.9338287,MIRAFLORES,GENERAL GUEMES,CHACO,,,,,,
POZO DE LA PAVA,2.2063E+14,2.2063E+14,-25.42782402,-60.93699646,MIRAFLORES,GENERAL GUEMES,CHACO,,,,,,
LAS CUATRO BOCAS,2.2063E+14,2.2063E+14,-25.7529841,-60.87629431,MIRAFLORES,GENERAL GUEMES,CHACO,,,,,,
EL MILAGRO,2.2063E+14,2.2063E+14,-25.49876282,-61.02292096,MIRAFLORES,GENERAL GUEMES,CHACO,,,,,,
LOS PLACERES,2.2063E+14,2.2063E+14,-25.48153779,-61.28259711,MIRAFLORES,GENERAL GUEMES,CHACO,,,,,,
POZO DE LA MULA,2.2063E+14,2.2063E+14,-25.28162384,-61.0569725,MIRAFLORES,GENERAL GUEMES,CHACO,,,,,,
MANANTIALES,2.2063E+14,2.2063E+14,-25.14927797,-60.73018997,MIRAFLORES,GENERAL GUEMES,CHACO,,,,,,
LA ESMERALDA,2.2063E+14,2.2063E+14,-25.34611612,-60.78668677,MIRAFLORES,GENERAL GUEMES,CHACO,,,,,,
POZO DEL NEGRO,2.2063E+14,2.2063E+14,-25.21047783,-61.11962509,MIRAFLORES,GENERAL GUEMES,CHACO,,,,,,
BALBUENA,2.2063E+14,2.2063E+14,-25.72209737,-60.9764363,MIRAFLORES,GENERAL GUEMES,CHACO,,,,,,
MIRAFLORES,2.2063E+14,2.2063E+14,-25.6489335,-60.93004019,MIRAFLORES,GENERAL GUEMES,CHACO,,,,,,
EL RETIRO,2.2063E+14,2.2063E+14,-25.58874165,-60.96800924,MIRAFLORES,GENERAL GUEMES,CHACO,,,,,,
CAMPO LA CHINA,2.2063E+14,2.2063E+14,-25.47761113,-60.9775063,MIRAFLORES,GENERAL GUEMES,CHACO,,,,,,
LA MEDIA LUNA,2.2063E+14,2.2063E+14,-25.21269257,-60.86084485,MIRAFLORES,GENERAL GUEMES,CHACO,,,,,,
1° DE MAYO,2.2063E+14,2.2063E+14,-25.70413822,-61.03150273,MIRAFLORES,GENERAL GUEMES,CHACO,,,,,,
PASO DE LA CRUZ,2.2063E+14,2.2063E+14,-25.261796,-61.077585,MIRAFLORES,GENERAL GUEMES,CHACO,,,,,,
LOTE 76,2.2063E+14,2.2063E+14,-25.64150311,-60.94504947,MIRAFLORES,GENERAL GUEMES,CHACO,,,,,,
SANTA VICTORIA,2.2063E+14,2.2063E+14,-25.49600545,-60.88939415,MIRAFLORES,GENERAL GUEMES,CHACO,,,,,,
PALO MARCADO,2.2063E+14,2.2063E+14,-25.40479727,-60.72863653,MIRAFLORES,GENERAL GUEMES,CHACO,,,,,,
TECHAT,2.2063E+14,2.2063E+14,-25.5470688,-60.89402839,MIRAFLORES,GENERAL GUEMES,CHACO,,,,,,
LOTE 71,2.2063E+14,2.2063E+14,-25.64258329,-60.90438038,MIRAFLORES,GENERAL GUEMES,CHACO,,,,,,
LAS PUERTAS,2.2063E+14,2.2063E+14,-25.56643558,-61.1574206,MIRAFLORES,GENERAL GUEMES,CHACO,,,,,,
POZO LA GRINGA,2.2063E+14,2.2063E+14,-25.31637282,-60.98444243,MIRAFLORES,GENERAL GUEMES,CHACO,,,,,,
EL CAÑON,2.2063E+14,2.2063E+14,-25.73502646,-60.93668274,MIRAFLORES,GENERAL GUEMES,CHACO,,,,,,
LAS HACHERAS,2.2063E+14,2.2063E+14,-25.38985562,-60.98859001,MIRAFLORES,GENERAL GUEMES,CHACO,,,,,,
LOS QUIRQUINCHOS,2.2063E+14,2.2063E+14,-25.69693056,-60.91709913,MIRAFLORES,GENERAL GUEMES,CHACO,,,,,,
YAPEYU,2.2063E+14,2.2063E+14,-25.70813821,-60.86591955,MIRAFLORES,GENERAL GUEMES,CHACO,,,,,,
LA CHEOGUE,2.2063E+14,2.2063E+14,-25.55177083,-60.84266062,MIRAFLORES,GENERAL GUEMES,CHACO,,,,,,
NUEVA UNION,2.2063E+14,2.2063E+14,-25.73468399,-61.01153946,MIRAFLORES,GENERAL GUEMES,CHACO,,,,,,
BAJADA ALTA,2.2063E+14,2.2063E+14,-25.38190432,-60.89279357,MIRAFLORES,GENERAL GUEMES,CHACO,,,,,,
EL ALGARROBO,2.2063E+14,2.2063E+14,-25.64563602,-61.17321768,MIRAFLORES,GENERAL GUEMES,CHACO,,,,,,
BAJO HONDO,2.2063E+14,2.2063E+14,-25.12210071,-61.20002338,MIRAFLORES,GENERAL GUEMES,CHACO,,,,,,
EL QUEBRACHO BALEADO,2.2063E+14,2.2063E+14,-25.35582874,-60.92049036,MIRAFLORES,GENERAL GUEMES,CHACO,,,,,,
SAN LORENZO,2.2063E+14,2.2063E+14,-25.69571207,-61.09074212,MIRAFLORES,GENERAL GUEMES,CHACO,,,,,,
LOS ROSALES,2.2063E+14,2.2063E+14,-25.31201469,-61.17818046,MIRAFLORES,GENERAL GUEMES,CHACO,,,,,,
LAS CHACRAS,1.4021E+14,1.4021E+14,-31.29150447,-64.11661497,COLONIA TIROLESA,COLON,CÓRDOBA,,,,,,
EL VERGEL,1.4021E+14,1.4021E+14,-31.25832604,-64.07463455,COLONIA TIROLESA,COLON,CÓRDOBA,,,,,,
ESTACION COLONIA TIROLESA,1.4021E+14,1.4021E+14,-31.27355505,-64.01505457,COLONIA TIROLESA,COLON,CÓRDOBA,,,,,,
EL QUEBRACHAL,1.4021E+14,1.4021E+14,-31.32159419,-64.0603629,COLONIA TIROLESA,COLON,CÓRDOBA,,,,,,
COLONIA LOS ALGARROBOS,1.4021E+14,1.4021E+14,-31.25624481,-63.95340394,COLONIA TIROLESA,COLON,CÓRDOBA,,,,,,
LA CORINA,1.4021E+14,1.4021E+14,-31.297188,-64.1435174,COLONIA TIROLESA,COLON,CÓRDOBA,,,,,,
COLONIA RIO CHICO,1.4021E+14,1.4021E+14,-31.27216339,-64.02657318,COLONIA TIROLESA,COLON,CÓRDOBA,,,,,,
COLONIA TIROLESA,1.4021E+14,1.4021E+14,-31.23578593,-64.0672541,COLONIA TIROLESA,COLON,CÓRDOBA,,,,,,
SANTA ELENA,1.4021E+14,1.4021E+14,-31.2593058,-64.07531896,COLONIA TIROLESA,COLON,CÓRDOBA,,,,,,
LA PUERTA,1.4021E+14,1.4021E+14,-31.14193006,-64.04021882,COLONIA TIROLESA,COLON,CÓRDOBA,,,,,,
LAS AVISPAS,8.20914E+14,8.20914E+14,-29.8953128,-61.29119925,LAS AVISPAS,SAN CRISTOBAL,SANTA FE,,,,,,
LABORDEBOY,8.20423E+14,8.20423E+14,-33.71965275,-61.31492082,LABORDEBOY,GENERAL LOPEZ,SANTA FE,,,,,,
GENERAL GELLY,8.20282E+14,8.20282E+14,-33.60184349,-60.59893835,GENERAL GELLY,CONSTITUCION,SANTA FE,,,,,,
CAMPO FONDATO,8.20282E+14,8.20282E+14,-33.61101643,-60.52599159,GENERAL GELLY,CONSTITUCION,SANTA FE,,,,,,
CAMPO GHIANO,8.2126E+14,8.2126E+14,-32.2424536,-61.6430165,EL TREBOL,SAN MARTIN,SANTA FE,,,,,,
CAMPO ULLA,8.2126E+14,8.2126E+14,-32.2633379,-61.75813468,EL TREBOL,SAN MARTIN,SANTA FE,,,,,,
EL TREBOL,8.2126E+14,8.2126E+14,-32.20302425,-61.70289449,EL TREBOL,SAN MARTIN,SANTA FE,,,,,,
CAMPO RIBERI,8.2126E+14,8.2126E+14,-32.23693962,-61.58475561,EL TREBOL,SAN MARTIN,SANTA FE,,,,,,
POTRERILLOS,6.6084E+14,6.6084E+14,-26.07097244,-65.47533417,EL JARDIN,LA CANDELARIA,SALTA,,,,,,
EL JARDIN,6.6084E+14,6.6084E+14,-26.09388342,-65.41384156,EL JARDIN,LA CANDELARIA,SALTA,,,,,,
LOZADA,1.41471E+14,1.41471E+14,-31.64845453,-64.08997961,LOZADA,SANTA MARÍA,CÓRDOBA,,,,,,
SALSIPUEDES,1.4021E+14,1.4021E+14,-31.13492693,-64.28733311,SALSIPUEDES,COLON,CÓRDOBA,,,,,,
LA ESTANCITA,1.4021E+14,1.4021E+14,-31.11397871,-64.36599191,SALSIPUEDES,COLON,CÓRDOBA,,,,,,
EL PUEBLITO,1.4021E+14,1.4021E+14,-31.10655641,-64.29719451,SALSIPUEDES,COLON,CÓRDOBA,,,,,,
LA JAULA,5.0091E+14,5.0091E+14,-34.66436573,-69.3184,SAN CARLOS,SAN CARLOS,MENDOZA,,,,,,
CAPIZ,5.0091E+14,5.0091E+14,-33.67094361,-68.98052274,SAN CARLOS,SAN CARLOS,MENDOZA,,,,,,
SAN CARLOS,5.0091E+14,5.0091E+14,-33.77444946,-69.04909092,SAN CARLOS,SAN CARLOS,MENDOZA,,,,,,
PAREDITAS,5.0091E+14,5.0091E+14,-33.9452563,-69.0824859,SAN CARLOS,SAN CARLOS,MENDOZA,,,,,,
CHILECITO,5.0091E+14,5.0091E+14,-33.8934021,-69.08046336,SAN CARLOS,SAN CARLOS,MENDOZA,,,,,,
EL PARRAL,5.0091E+14,5.0091E+14,-34.01152039,-69.14201355,SAN CARLOS,SAN CARLOS,MENDOZA,,,,,,
PIEDRAS BLANCAS,5.0091E+14,5.0091E+14,-33.97281823,-69.10149772,SAN CARLOS,SAN CARLOS,MENDOZA,,,,,,
TRES ESQUINAS,5.0091E+14,5.0091E+14,-33.82490815,-69.05606379,SAN CARLOS,SAN CARLOS,MENDOZA,,,,,,
LA CONSULTA,5.0091E+14,5.0091E+14,-33.73867574,-69.12812557,SAN CARLOS,SAN CARLOS,MENDOZA,,,,,,
BARRIO EL CEPILLO,5.0091E+14,5.0091E+14,-33.83865338,-69.13034972,SAN CARLOS,SAN CARLOS,MENDOZA,,,,,,
PASO DE LAS CARRETAS,5.0091E+14,5.0091E+14,-34.01655321,-69.03218549,SAN CARLOS,SAN CARLOS,MENDOZA,,,,,,
EUGENIO BUSTOS,5.0091E+14,5.0091E+14,-33.78502245,-69.07290453,SAN CARLOS,SAN CARLOS,MENDOZA,,,,,,
EL CAPACHO,5.0091E+14,5.0091E+14,-33.66641784,-69.04254797,SAN CARLOS,SAN CARLOS,MENDOZA,,,,,,
BARRIO CARRASCO,5.0091E+14,5.0091E+14,-33.83210661,-69.04900321,SAN CARLOS,SAN CARLOS,MENDOZA,,,,,,
LOS ALAMITOS,5.0091E+14,5.0091E+14,-34.05994415,-69.11838532,SAN CARLOS,SAN CARLOS,MENDOZA,,,,,,
VILLA EL CHACON,5.0091E+14,5.0091E+14,-33.736912,-69.07205059,SAN CARLOS,SAN CARLOS,MENDOZA,,,,,,
CAMPAMENTO VILLEGAS,2.6042E+14,2.6042E+14,-43.48353195,-66.1457901,AREA SIN GOBIERNO,GAIMAN,CHUBUT,,,,,,
SANTA TERESA,8.20283E+14,8.20283E+14,-33.43854716,-60.79115428,SANTA TERESA,CONSTITUCION,SANTA FE,,,,,,
FRANCISCO PAZ,8.20283E+14,8.20283E+14,-33.41881437,-60.86666809,SANTA TERESA,CONSTITUCION,SANTA FE,,,,,,
CHACHARRAMENDI,4.21545E+14,4.21545E+14,-37.33181478,-65.6507728,CHACHARRAMENDI,UTRACAN,LA PAMPA,,,,,,
VALLE DAZA,4.21545E+14,4.21545E+14,-37.06991196,-65.42455292,CHACHARRAMENDI,UTRACAN,LA PAMPA,,,,,,
BARRIO CHIVILCOY,5.0098E+14,5.0098E+14,-33.04114674,-68.35415274,SAN MARTIN,SAN MARTIN,MENDOZA,,,,,,
EL DIVISADERO,5.0098E+14,5.0098E+14,-32.86852992,-68.32065226,SAN MARTIN,SAN MARTIN,MENDOZA,,,,,,
BUEN ORDEN,5.0098E+14,5.0098E+14,-33.09678674,-68.4308212,SAN MARTIN,SAN MARTIN,MENDOZA,,,,,,
MONTECASEROS,5.0098E+14,5.0098E+14,-33.01099664,-68.39368013,SAN MARTIN,SAN MARTIN,MENDOZA,,,,,,
BARRIO LA ESTACION,5.0098E+14,5.0098E+14,-33.15529016,-68.35436216,SAN MARTIN,SAN MARTIN,MENDOZA,,,,,,
CHAPANAY,5.0098E+14,5.0098E+14,-32.98011773,-68.47652538,SAN MARTIN,SAN MARTIN,MENDOZA,,,,,,
BARRIO NTRA. SRA. DE FATIMA,5.0098E+14,5.0098E+14,-33.13097148,-68.35127798,SAN MARTIN,SAN MARTIN,MENDOZA,,,,,,
TRES PORTEÑAS,5.0098E+14,5.0098E+14,-32.89948018,-68.39909629,SAN MARTIN,SAN MARTIN,MENDOZA,,,,,,
CHIVILCOY,5.0098E+14,5.0098E+14,-33.03833558,-68.45940294,SAN MARTIN,SAN MARTIN,MENDOZA,,,,,,
BARRIO LOS CHARABONES,5.0098E+14,5.0098E+14,-32.97851157,-68.30510182,SAN MARTIN,SAN MARTIN,MENDOZA,,,,,,
ALTO VERDE,5.0098E+14,5.0098E+14,-33.11950374,-68.4180219,SAN MARTIN,SAN MARTIN,MENDOZA,,,,,,
CIUDAD DE SAN MARTIN,5.0098E+14,5.0098E+14,-33.0732178,-68.46051255,SAN MARTIN,SAN MARTIN,MENDOZA,,,,,,
EL RAMBLON,5.0098E+14,5.0098E+14,-33.16177097,-68.29548443,SAN MARTIN,SAN MARTIN,MENDOZA,,,,,,
BARRIO EMANUEL,5.0098E+14,5.0098E+14,-32.8468556,-68.41001992,SAN MARTIN,SAN MARTIN,MENDOZA,,,,,,
VILLA CENTENARIO,5.0098E+14,5.0098E+14,-33.08588791,-68.44897461,SAN MARTIN,SAN MARTIN,MENDOZA,,,,,,
EL ESPINO,5.0098E+14,5.0098E+14,-33.07733306,-68.39828382,SAN MARTIN,SAN MARTIN,MENDOZA,,,,,,
PALMIRA,5.0098E+14,5.0098E+14,-33.04999328,-68.54908968,SAN MARTIN,SAN MARTIN,MENDOZA,,,,,,
NUEVA CALIFORNIA,5.0098E+14,5.0098E+14,-32.74506061,-68.3354508,SAN MARTIN,SAN MARTIN,MENDOZA,,,,,,
TRES ESQUINAS,5.0098E+14,5.0098E+14,-33.02001674,-68.39828469,SAN MARTIN,SAN MARTIN,MENDOZA,,,,,,
ALTO SALVADOR,5.0098E+14,5.0098E+14,-33.03597168,-68.47084072,SAN MARTIN,SAN MARTIN,MENDOZA,,,,,,
COLONIA LAMBARE,5.0098E+14,5.0098E+14,-33.05376906,-68.2770029,SAN MARTIN,SAN MARTIN,MENDOZA,,,,,,
EL RINCON,2.6014E+14,2.6014E+14,-42.51882779,-71.43841284,CHOLILA,CUSHAMEN,CHUBUT,,,,,,
EL BLANCO,2.6014E+14,2.6014E+14,-42.46413206,-71.44447184,CHOLILA,CUSHAMEN,CHUBUT,,,,,,
EL CAJON,2.6014E+14,2.6014E+14,-42.46782455,-71.35736019,CHOLILA,CUSHAMEN,CHUBUT,,,,,,
CHOLILA,2.6014E+14,2.6014E+14,-42.51053137,-71.43515483,CHOLILA,CUSHAMEN,CHUBUT,,,,,,
VILLA LAGO RIVADAVIA,2.6014E+14,2.6014E+14,-42.56195994,-71.59802269,CHOLILA,CUSHAMEN,CHUBUT,,,,,,
LA PUERTA,1.41051E+14,1.41051E+14,-30.89260512,-63.2532712,LA PUERTA,RIO PRIMERO,CÓRDOBA,,,,,,
PINTOS,1.40911E+14,1.40911E+14,-30.95659088,-64.6119074,LA CUMBRE,PUNILLA,CÓRDOBA,,,,,,
EL ROSARIO,1.40911E+14,1.40911E+14,-30.99207497,-64.44722748,LA CUMBRE,PUNILLA,CÓRDOBA,,,,,,
LA CUMBRE,1.40911E+14,1.40911E+14,-30.97924615,-64.49090871,LA CUMBRE,PUNILLA,CÓRDOBA,,,,,,
VILLA TERCERA,9.00148E+14,9.00148E+14,-26.89146927,-65.01318221,LOS RALOS,CRUZ ALTA,TUCUMÁN,,,,,,
EX INGENIO LOS RALOS,9.00148E+14,9.00148E+14,-26.87709985,-64.97489875,LOS RALOS,CRUZ ALTA,TUCUMÁN,,,,,,
LAS MERCEDES,9.00148E+14,9.00148E+14,-26.91002464,-64.99814606,LOS RALOS,CRUZ ALTA,TUCUMÁN,,,,,,
VILLA RECASTE,9.00148E+14,9.00148E+14,-26.88680841,-65.0074356,LOS RALOS,CRUZ ALTA,TUCUMÁN,,,,,,
CAMPO LA FLOR,9.00148E+14,9.00148E+14,-26.95146,-65.01144,LOS RALOS,CRUZ ALTA,TUCUMÁN,,,,,,
RUTA 5 KM 132,6.78408E+13,6.78408E+13,-34.80257307,-59.73577375,SUIPACHA,SUIPACHA,BUENOS AIRES,,,,,,
SUIPACHA,6.78408E+13,6.78408E+13,-34.77126178,-59.68791818,SUIPACHA,SUIPACHA,BUENOS AIRES,,,,,,
GENERAL RIVAS,6.78408E+13,6.78408E+13,-34.61003707,-59.75042342,SUIPACHA,SUIPACHA,BUENOS AIRES,,,,,,
LOS CARDALES,6.78408E+13,6.78408E+13,-34.8524384,-59.727194,SUIPACHA,SUIPACHA,BUENOS AIRES,,,,,,
CUARTEL VIII,6.78408E+13,6.78408E+13,-34.78294145,-59.55660668,SUIPACHA,SUIPACHA,BUENOS AIRES,,,,,,
ESTACION LA NEGRA,6.78408E+13,6.78408E+13,-34.6532056,-59.8279581,SUIPACHA,SUIPACHA,BUENOS AIRES,,,,,,
LA DULCE,6.78408E+13,6.78408E+13,-34.89617288,-59.61802006,SUIPACHA,SUIPACHA,BUENOS AIRES,,,,,,
CUARTEL IX,6.78408E+13,6.78408E+13,-34.8439555,-59.5955827,SUIPACHA,SUIPACHA,BUENOS AIRES,,,,,,
CUARTEL IV,6.78408E+13,6.78408E+13,-34.7224296,-59.7512909,SUIPACHA,SUIPACHA,BUENOS AIRES,,,,,,
FORTIN ARENALES,8.20493E+14,8.20493E+14,-28.8541597,-59.699156,LANTERI,GENERAL OBLIGADO,SANTA FE,,,,,,
CAMPO BONAZOLA,8.20493E+14,8.20493E+14,-28.79669348,-59.69184085,LANTERI,GENERAL OBLIGADO,SANTA FE,,,,,,
LAS TAPERITAS,8.20493E+14,8.20493E+14,-28.8612678,-59.7337052,LANTERI,GENERAL OBLIGADO,SANTA FE,,,,,,
LANTERI,8.20493E+14,8.20493E+14,-28.84297062,-59.63792877,LANTERI,GENERAL OBLIGADO,SANTA FE,,,,,,
CAMPO SIETE PROVINCIAS,8.20493E+14,8.20493E+14,-28.8881991,-59.76619972,LANTERI,GENERAL OBLIGADO,SANTA FE,,,,,,
FLOR DE ORO,8.20493E+14,8.20493E+14,-28.92052269,-59.65719605,LANTERI,GENERAL OBLIGADO,SANTA FE,,,,,,
LA BRITANICA,8.20493E+14,8.20493E+14,-28.84311627,-59.56635583,LANTERI,GENERAL OBLIGADO,SANTA FE,,,,,,
DIVISADERO,6.6021E+14,6.6021E+14,-26.10228924,-66.01550671,CAFAYATE,CAFAYATE,SALTA,,,,,,
YACOCHUYA,6.6021E+14,6.6021E+14,-26.04257335,-66.01825592,CAFAYATE,CAFAYATE,SALTA,,,,,,
EL PASO,6.6021E+14,6.6021E+14,-25.98903084,-65.78398895,CAFAYATE,CAFAYATE,SALTA,,,,,,
LAS CONCHAS,6.6021E+14,6.6021E+14,-25.99422315,-65.82933223,CAFAYATE,CAFAYATE,SALTA,,,,,,
CAFAYATE,6.6021E+14,6.6021E+14,-26.07653844,-65.98628973,CAFAYATE,CAFAYATE,SALTA,,,,,,
SANTA BARBARA,6.6021E+14,6.6021E+14,-25.92833565,-65.71896432,CAFAYATE,CAFAYATE,SALTA,,,,,,
TOLOMBOM,6.6021E+14,6.6021E+14,-26.20295747,-65.94679577,CAFAYATE,CAFAYATE,SALTA,,,,,,
OJEDA,4.2133E+14,4.2133E+14,-35.30682777,-64.00547256,ALTA ITALIA,REALICO,LA PAMPA,,,,,,
ALTA ITALIA,4.2133E+14,4.2133E+14,-35.33385956,-64.11824054,ALTA ITALIA,REALICO,LA PAMPA,,,,,,
CAMPO GALLO,8.6014E+14,8.6014E+14,-26.58141906,-62.82620032,CAMPO GALLO,ALBERDI,SANTIAGO DEL ESTERO,,,,,,
CAITA TORO,6.2084E+14,6.2084E+14,-40.28615189,-66.82636261,AREA SIN GOBIERNO,VALCHETA,RÍO NEGRO,,,,,,
CHANQUIN,6.2084E+14,6.2084E+14,-40.72539139,-66.31420136,AREA SIN GOBIERNO,VALCHETA,RÍO NEGRO,,,,,,
SAN ANTONIO,3.4014E+14,3.4014E+14,-26.1678144,-58.21054298,FORMOSA,FORMOSA,FORMOSA,,,,,,
ISLA OCA,3.4014E+14,3.4014E+14,-26.21432133,-58.1961929,FORMOSA,FORMOSA,FORMOSA,,,,,,
COLONIA FORMOSA,3.4014E+14,3.4014E+14,-26.17588806,-58.23164749,FORMOSA,FORMOSA,FORMOSA,,,,,,
LA COLONIA,3.4014E+14,3.4014E+14,-26.15792722,-58.18965113,FORMOSA,FORMOSA,FORMOSA,,,,,,
FORMOSA,3.4014E+14,3.4014E+14,-26.18282231,-58.17339306,FORMOSA,FORMOSA,FORMOSA,,,,,,
GARRIDO,6.47605E+13,6.47605E+13,-37.84187661,-58.75523467,LOBERIA,LOBERIA,BUENOS AIRES,,,,,,
LAVALLE,6.47605E+13,6.47605E+13,-38.1041853,-58.9135956,LOBERIA,LOBERIA,BUENOS AIRES,,,,,,
EL EDEN,6.47605E+13,6.47605E+13,-38.06790543,-58.40255358,LOBERIA,LOBERIA,BUENOS AIRES,,,,,,
LA LOMA,6.47605E+13,6.47605E+13,-37.9713408,-58.5655521,LOBERIA,LOBERIA,BUENOS AIRES,,,,,,
PIERES,6.47605E+13,6.47605E+13,-38.39623062,-58.67058001,LOBERIA,LOBERIA,BUENOS AIRES,,,,,,
EL MORO,6.47605E+13,6.47605E+13,-38.10955893,-58.57453591,LOBERIA,LOBERIA,BUENOS AIRES,,,,,,
LA GUITARRA,6.47605E+13,6.47605E+13,-37.85134506,-59.00797273,LOBERIA,LOBERIA,BUENOS AIRES,,,,,,
NAPALEOFU,6.47605E+13,6.47605E+13,-37.62675583,-58.74992627,LOBERIA,LOBERIA,BUENOS AIRES,,,,,,
LA ALIANZA,6.47605E+13,6.47605E+13,-38.27775192,-58.56661226,LOBERIA,LOBERIA,BUENOS AIRES,,,,,,
SANTA MARIA,6.47605E+13,6.47605E+13,-38.2341558,-58.5681713,LOBERIA,LOBERIA,BUENOS AIRES,,,,,,
EL PAMPERO,6.47605E+13,6.47605E+13,-37.9636901,-58.6886606,LOBERIA,LOBERIA,BUENOS AIRES,,,,,,
PUERTA DEL DIABLO,6.47605E+13,6.47605E+13,-37.8398293,-58.5715713,LOBERIA,LOBERIA,BUENOS AIRES,,,,,,
LA FLORESTA,6.47605E+13,6.47605E+13,-38.1713501,-58.4334892,LOBERIA,LOBERIA,BUENOS AIRES,,,,,,
ARENAS VERDES,6.47605E+13,6.47605E+13,-38.54637824,-58.55732211,LOBERIA,LOBERIA,BUENOS AIRES,,,,,,
LA MALACARA,6.47605E+13,6.47605E+13,-38.2403704,-58.4298848,LOBERIA,LOBERIA,BUENOS AIRES,,,,,,
SAN PASCUAL,6.47605E+13,6.47605E+13,-38.4257932,-58.4589128,LOBERIA,LOBERIA,BUENOS AIRES,,,,,,
DOS NACIONES,6.47605E+13,6.47605E+13,-37.7714343,-58.6447231,LOBERIA,LOBERIA,BUENOS AIRES,,,,,,
SAN MANUEL,6.47605E+13,6.47605E+13,-37.7892829,-58.84864767,LOBERIA,LOBERIA,BUENOS AIRES,,,,,,
LA PROVIDENCIA,6.47605E+13,6.47605E+13,-37.94847107,-58.92501451,LOBERIA,LOBERIA,BUENOS AIRES,,,,,,
LAS TOSCAS,6.47605E+13,6.47605E+13,-38.3291054,-58.3463982,LOBERIA,LOBERIA,BUENOS AIRES,,,,,,
LAS NUTRIAS,6.47605E+13,6.47605E+13,-38.0791707,-58.4533151,LOBERIA,LOBERIA,BUENOS AIRES,,,,,,
LAHORE,6.47605E+13,6.47605E+13,-38.0559666,-58.9705728,LOBERIA,LOBERIA,BUENOS AIRES,,,,,,
TOME Y TRAIGA,6.47605E+13,6.47605E+13,-38.1158516,-58.8521239,LOBERIA,LOBERIA,BUENOS AIRES,,,,,,
LOBERIA,6.47605E+13,6.47605E+13,-38.16527339,-58.78223033,LOBERIA,LOBERIA,BUENOS AIRES,,,,,,
EL LENGUARAZ,6.47605E+13,6.47605E+13,-38.06705851,-58.85840957,LOBERIA,LOBERIA,BUENOS AIRES,,,,,,
LA BODEGA,6.47605E+13,6.47605E+13,-37.74117279,-58.93902588,LOBERIA,LOBERIA,BUENOS AIRES,,,,,,
TAMANGUEYU,6.47605E+13,6.47605E+13,-38.20101124,-58.7373144,LOBERIA,LOBERIA,BUENOS AIRES,,,,,,
LICENCIADO MATIENZO,6.47605E+13,6.47605E+13,-37.90979271,-58.91209659,LOBERIA,LOBERIA,BUENOS AIRES,,,,,,
SAN ANTONIO,6.47605E+13,6.47605E+13,-37.9550232,-59.0866501,LOBERIA,LOBERIA,BUENOS AIRES,,,,,,
MOROMAR,6.47605E+13,6.47605E+13,-38.4179912,-58.3813524,LOBERIA,LOBERIA,BUENOS AIRES,,,,,,
ALTO EL BOLSON,1.0035E+14,1.0035E+14,-26.94426,-66.73487,VILLA VIL,BELEN,CATAMARCA,,,,,,
LAS CUEVAS,1.0035E+14,1.0035E+14,-27.0183,-66.66805,VILLA VIL,BELEN,CATAMARCA,,,,,,
CORRAL BLANCO,1.0035E+14,1.0035E+14,-26.49624358,-66.91953963,VILLA VIL,BELEN,CATAMARCA,,,,,,
LAGUNA BLANCA,1.0035E+14,1.0035E+14,-26.59043061,-66.930476,VILLA VIL,BELEN,CATAMARCA,,,,,,
BARRANCA LARGA,1.0035E+14,1.0035E+14,-26.93667259,-66.74737367,VILLA VIL,BELEN,CATAMARCA,,,,,,
VILLA VIL,1.0035E+14,1.0035E+14,-27.07108068,-66.8307697,VILLA VIL,BELEN,CATAMARCA,,,,,,
SAN IGNACIO (LOTEO VELEZ CRESPO),1.4007E+14,1.4007E+14,-32.09945127,-64.53375918,SANTA ROSA DE CALAMUCHITA,CALAMUCHITA,CÓRDOBA,,,,,,
SANTA MONICA,1.4007E+14,1.4007E+14,-32.06659514,-64.57910186,SANTA ROSA DE CALAMUCHITA,CALAMUCHITA,CÓRDOBA,,,,,,
SANTA ROSA DE CALAMUCHITA,1.4007E+14,1.4007E+14,-32.07315738,-64.54473238,SANTA ROSA DE CALAMUCHITA,CALAMUCHITA,CÓRDOBA,,,,,,
ARROYO SECO,1.4007E+14,1.4007E+14,-32.09286214,-64.56387845,SANTA ROSA DE CALAMUCHITA,CALAMUCHITA,CÓRDOBA,,,,,,
CAMPANA MAHUIDA,6.20845E+14,6.20845E+14,-41.57950211,-66.47671509,ARROYO LOS BERROS,VALCHETA,RÍO NEGRO,,,,,,
ARROYO LOS BERROS,6.20845E+14,6.20845E+14,-41.43725364,-66.09507732,ARROYO LOS BERROS,VALCHETA,RÍO NEGRO,,,,,,
LAS HERAS,7.8014E+14,7.8014E+14,-46.54245538,-68.93417732,LAS HERAS,DESEADO,SANTA CRUZ,,,,,,
COLONIA LA SARITA,3.0114E+14,3.0114E+14,-31.65286977,-58.97233871,LUCAS SUR PRIMERO,VILLAGUAY,ENTRE RÍOS,,,,,,
RINCON LUCAS SUD,3.0114E+14,3.0114E+14,-31.6520732,-59.10623363,LUCAS SUR PRIMERO,VILLAGUAY,ENTRE RÍOS,,,,,,
VISTA ALEGRE NORTE,5.8035E+14,5.8035E+14,-38.72771231,-68.17214389,VISTA ALEGRE,CONFLUENCIA,NEUQUÉN,,,,,,
VISTA ALEGRE SUR,5.8035E+14,5.8035E+14,-38.77155373,-68.13691872,VISTA ALEGRE,CONFLUENCIA,NEUQUÉN,,,,,,
BARRIO RUCA LUHE,5.8035E+14,5.8035E+14,-38.75439071,-68.18033997,VISTA ALEGRE,CONFLUENCIA,NEUQUÉN,,,,,,
MUYO,9.00218E+14,9.00218E+14,-27.37255,-65.67885,ALPACHIRI Y EL MOLINO,CHICLIGASTA,TUCUMÁN,,,,,,
ALPACHIRI,9.00218E+14,9.00218E+14,-27.33646445,-65.75607064,ALPACHIRI Y EL MOLINO,CHICLIGASTA,TUCUMÁN,,,,,,
LAS LENGUAS,9.00218E+14,9.00218E+14,-27.32892418,-65.92353821,ALPACHIRI Y EL MOLINO,CHICLIGASTA,TUCUMÁN,,,,,,
EL MOLINO,9.00218E+14,9.00218E+14,-27.33829,-65.6892568,ALPACHIRI Y EL MOLINO,CHICLIGASTA,TUCUMÁN,,,,,,
COCHUNA,9.00218E+14,9.00218E+14,-27.31827736,-65.91885376,ALPACHIRI Y EL MOLINO,CHICLIGASTA,TUCUMÁN,,,,,,
LA CALERA,9.00218E+14,9.00218E+14,-27.3516953,-65.707406,ALPACHIRI Y EL MOLINO,CHICLIGASTA,TUCUMÁN,,,,,,
LAS PAVAS,9.00218E+14,9.00218E+14,-27.2533226,-65.889328,ALPACHIRI Y EL MOLINO,CHICLIGASTA,TUCUMÁN,,,,,,
POSTA CAMBIO ZALAZAR,3.40359E+14,3.40359E+14,-24.21158486,-60.19866697,POSTA CAMBIO ZALAZAR,PATIÑO,FORMOSA,,,,,,
PASO FLORES,6.20705E+14,6.20705E+14,-40.60208555,-70.69654246,PASO FLORES,PILCANIYEU,RÍO NEGRO,,,,,,
EL SOMBRERO,1.8042E+14,1.8042E+14,-27.70354409,-58.76860606,EL SOMBRERO,EMPEDRADO,CORRIENTES,,,,,,
LA MARTA,1.807E+14,1.807E+14,-29.59848998,-59.28175475,SAN ISIDRO,GOYA,CORRIENTES,,,,,,
SAN GREGORIO,1.807E+14,1.807E+14,-29.5080239,-59.3903817,SAN ISIDRO,GOYA,CORRIENTES,,,,,,
SAN ISIDRO,1.807E+14,1.807E+14,-29.4985488,-59.3165807,SAN ISIDRO,GOYA,CORRIENTES,,,,,,
PASO SAN JUAN,1.807E+14,1.807E+14,-29.6438333,-59.3453214,SAN ISIDRO,GOYA,CORRIENTES,,,,,,
PASO LOS ANGELES,1.807E+14,1.807E+14,-29.70562967,-59.29345145,SAN ISIDRO,GOYA,CORRIENTES,,,,,,
ISLA TALAR,1.807E+14,1.807E+14,-29.7441129,-59.5974119,SAN ISIDRO,GOYA,CORRIENTES,,,,,,
LA CUCUCHA,1.807E+14,1.807E+14,-29.548913,-59.368162,SAN ISIDRO,GOYA,CORRIENTES,,,,,,
BUENA ESPERANZA,1.807E+14,1.807E+14,-29.7031516,-59.3843856,SAN ISIDRO,GOYA,CORRIENTES,,,,,,
STELLA MARIS,1.807E+14,1.807E+14,-29.5282997,-59.4387122,SAN ISIDRO,GOYA,CORRIENTES,,,,,,
SAN MARTIN,1.807E+14,1.807E+14,-29.5942151,-59.3481365,SAN ISIDRO,GOYA,CORRIENTES,,,,,,
EL QUEBRACHO,1.807E+14,1.807E+14,-29.6034037,-59.4124626,SAN ISIDRO,GOYA,CORRIENTES,,,,,,
ESTANCIA SANTA RITA,1.807E+14,1.807E+14,-29.7209276,-59.43030157,SAN ISIDRO,GOYA,CORRIENTES,,,,,,
CAMPO MORATO,1.807E+14,1.807E+14,-29.7044818,-59.3492784,SAN ISIDRO,GOYA,CORRIENTES,,,,,,
SAN ANTONIO,1.807E+14,1.807E+14,-29.6085849,-59.4568672,SAN ISIDRO,GOYA,CORRIENTES,,,,,,
RINCON DEL PAGO,1.807E+14,1.807E+14,-29.67011765,-59.16321189,SAN ISIDRO,GOYA,CORRIENTES,,,,,,
INVERNADA,1.807E+14,1.807E+14,-29.75300477,-59.29881732,SAN ISIDRO,GOYA,CORRIENTES,,,,,,
PAGO DE LOS DESEOS,1.8126E+14,1.8126E+14,-28.20432119,-58.46629763,PAGO DE LOS DESEOS,SALADAS,CORRIENTES,,,,,,
COLONIA 3 DE ABRIL,1.8007E+14,1.8007E+14,-28.38088485,-58.94809628,3 DE ABRIL,BELLA VISTA,CORRIENTES,,,,,,
EL ESPINILLO,2.2063E+14,2.2063E+14,-25.41766986,-60.4139677,EL ESPINILLO,GENERAL GUEMES,CHACO,,,,,,
AGUAS BLANCAS,6.6126E+14,6.6126E+14,-22.72456119,-64.34631922,AGUAS BLANCAS,ORAN,SALTA,,,,,,
COLONIA TERESA,8.20984E+14,8.20984E+14,-30.2584345,-59.9707229,COLONIA TERESA,SAN JAVIER,SANTA FE,,,,,,
CUBANEA,6.20075E+14,6.20075E+14,-40.63358307,-63.50950623,CUBANEA,ADOLFO ALSINA,RÍO NEGRO,,,,,,
CHIPAUQUIL,6.20845E+14,6.20845E+14,-40.96049121,-66.64218759,CHIPAUQUIL,VALCHETA,RÍO NEGRO,,,,,,
PILO LIL,5.80215E+14,5.80215E+14,-39.60386091,-70.93499153,PILO LIL,CATAN LIL,NEUQUÉN,,,,,,
GUAÑACOS,5.80775E+14,5.80775E+14,-37.2692894,-70.7661301,GUAÑACOS,MINAS,NEUQUÉN,,,,,,
LOS CHAÑARITOS,1.41193E+14,1.41193E+14,-31.40213775,-63.33210304,LOS CHAÑARITOS (RÍO SEGUNDO),RIO SEGUNDO,CÓRDOBA,,,,,,
DOÑA LUISA,8.60846E+14,8.60846E+14,-27.7,-64.7333,DOÑA LUISA,GUASAYAN,SANTIAGO DEL ESTERO,,,,,,
SABAGASTA,8.61687E+14,8.61687E+14,-28.62806671,-63.49391107,SABAGASTA,SALAVINA,SANTIAGO DEL ESTERO,,,,,,
NUEVA POMPEYA,2.2063E+14,2.2063E+14,-24.93344188,-61.48469984,MISION NUEVA POMPEYA,GENERAL GUEMES,CHACO,,,,,,
ALDEA APELEG,2.60848E+14,2.60848E+14,-44.70525211,-70.84600101,ALDEA APELEG,RIO SENGUER,CHUBUT,,,,,,
CAMPO PIAGGIO,8.21054E+14,8.21054E+14,-31.95373,-61.290612,CAMPO PIAGGIO,SAN JERONIMO,SANTA FE,,86,,,,
LAPACHITO,2.2056E+14,2.2056E+14,-27.15879035,-59.3903975,LAPACHITO,GENERAL DONOVAN,CHACO,,,,,,
COLONIAS UNIDAS,2.2154E+14,2.2154E+14,-26.70009718,-59.62774218,COLONIAS UNIDAS,SARGENTO CABRAL,CHACO,,,,,,
LOS TALARES,1.40772E+14,1.40772E+14,-31.3754115,-65.03860115,LOS TALARES,POCHO,CÓRDOBA,,,,,,
LA RANCHERITA,1.41473E+14,1.41473E+14,-31.75746754,-64.44869028,LA RANCHERITA,SANTA MARÍA,CÓRDOBA,,,,,,
COLONIA CAROLINA,1.807E+14,1.807E+14,-29.14577068,-59.18208383,CAROLINA,GOYA,CORRIENTES,,,,,,
COLONIA ISABEL VICTORIA,1.807E+14,1.807E+14,-29.1210048,-59.09647952,CAROLINA,GOYA,CORRIENTES,,,,,,
VILLA OLIVARI,1.8084E+14,1.8084E+14,-27.63294733,-56.90620148,VILLA OLIVARI,ITUZAINGO,CORRIENTES,,,,,,
COLONIA PANDO,1.8161E+14,1.8161E+14,-28.52521488,-58.48693455,COLONIA PANDO,SAN ROQUE,CORRIENTES,,,,,,
COLONIA PEREIRA,3.00089E+14,3.00089E+14,-32.30106483,-58.27904075,COLONIA SAN ANSELMO Y ALEDAÑAS,COLON,ENTRE RÍOS,,,,,,
COLONIA SAN ANSELMO,3.00089E+14,3.00089E+14,-32.33264884,-58.1803689,COLONIA SAN ANSELMO Y ALEDAÑAS,COLON,ENTRE RÍOS,,,,,,
MOLINO DOLL,3.00219E+14,3.00219E+14,-32.28128515,-60.43119346,COSTA GRANDE,DIAMANTE,ENTRE RÍOS,,,,,,
COLONIA OFICIAL 16,3.00289E+14,3.00289E+14,-30.67149184,-58.01593122,LA FLORIDA,FEDERACION,ENTRE RÍOS,,,,,,
COLONIA AYMAN,3.00289E+14,3.00289E+14,-30.70681007,-57.88784914,SAN ROQUE,FEDERACION,ENTRE RÍOS,,,,,,
BANDERITAS,3.00359E+14,3.00359E+14,-30.78924054,-59.16012038,BANDERAS,FEDERAL,ENTRE RÍOS,,,,,,
COLONIA LA BERTA,3.00359E+14,3.00359E+14,-30.89242264,-59.15501237,BANDERAS,FEDERAL,ENTRE RÍOS,,,,,,
COLONIA SAN LORENZO,3.00359E+14,3.00359E+14,-31.15574369,-58.91816221,DISTRITO DIEGO LOPEZ,FEDERAL,ENTRE RÍOS,,,,,,
COLONIA LA MARTA,3.00359E+14,3.00359E+14,-31.0363076,-58.80960621,DISTRITO DIEGO LOPEZ,FEDERAL,ENTRE RÍOS,,,,,,
DIEGO LOPEZ,3.00359E+14,3.00359E+14,-31.04938116,-58.98487457,DISTRITO DIEGO LOPEZ,FEDERAL,ENTRE RÍOS,,,,,,
COLONIA LA LATA,3.00359E+14,3.00359E+14,-31.10394044,-58.82356614,DISTRITO DIEGO LOPEZ,FEDERAL,ENTRE RÍOS,,,,,,
COLONIA SANTA LUCIA,3.00359E+14,3.00359E+14,-30.8744675,-58.52308567,SANTA LUCIA,FEDERAL,ENTRE RÍOS,,,,,,
COLONIA OFICIAL 18,3.00429E+14,3.00429E+14,-30.30815813,-58.81806904,DISTRITO CHAÑAR,FELICIANO,ENTRE RÍOS,,,,,,
LAS MULITAS,3.00429E+14,3.00429E+14,-30.37970606,-58.99523657,LAS MULITAS,FELICIANO,ENTRE RÍOS,,,,,,
ARROYO SEPULTURA,3.00499E+14,3.00499E+14,-33.44138931,-59.8906592,ISLAS LAS LECHIGUANAS,GUALEGUAY,ENTRE RÍOS,,,,,,
ARROYO LAS LECHIGUANAS,3.00499E+14,3.00499E+14,-33.55871824,-59.48052013,ISLAS LAS LECHIGUANAS,GUALEGUAY,ENTRE RÍOS,,,,,,
PASTOR BRITOS,3.00569E+14,3.00569E+14,-32.76974261,-58.90702004,PASTOR BRITOS,GUALEGUAYCHU,ENTRE RÍOS,,,,,,
RINCON DEL GATO,3.00569E+14,3.00569E+14,-32.69767731,-58.61744879,RINCON DEL GATO,GUALEGUAYCHU,ENTRE RÍOS,,,,,,
PERDICES,3.00569E+14,3.00569E+14,-33.29977036,-58.70518494,PERDICES,GUALEGUAYCHU,ENTRE RÍOS,,,,,,
DISTRITO PERDICES,3.00569E+14,3.00569E+14,-33.32658691,-58.63670125,PERDICES,GUALEGUAYCHU,ENTRE RÍOS,,,,,,
ÑANCAY,3.00639E+14,3.00639E+14,-33.44864594,-58.66964192,ÑANCAY,ISLAS DEL IBICUY,ENTRE RÍOS,,,,,,
LA PROVIDENCIA,300709465000A36,,-31.246829,-59.7497,LA PROVIDENCIA,LA PAZ,ENTRE RÍOS,,,,,,
COLONIA EL SAUCESITO,3.00709E+14,3.00709E+14,-30.63413672,-59.26126334,SAUCECITO,LA PAZ,ENTRE RÍOS,,,,,,
CRUCESITAS,3.0078E+14,3.0078E+14,-32.04056106,-59.5287951,CRUCESITAS OCTAVA,NOGOYA,ENTRE RÍOS,,,,,,
ORO VERDE,3.0084E+14,3.0084E+14,-31.82573555,-60.51827282,ORO VERDE,PARANA,ENTRE RÍOS,,,,,,
ARROYO CORRALITO,3.0085E+14,,-31.532554,-60.050345,ARROYO CORRALITO,PARANA,ENTRE RÍOS,,337,,,,
ALDEA SANTA ROSA,3.0085E+14,3.0085E+14,-32.01645446,-60.24110735,ALDEA SANTA ROSA,PARANA,ENTRE RÍOS,,,,,,
ARROYO GRANDE,3.0089E+14,3.0089E+14,-31.59398509,-58.37116015,COLONIA OFICIAL N° 5,SAN SALVADOR,ENTRE RÍOS,,,,,,
COLONIA OFICIAL N° 5,3.0089E+14,3.0089E+14,-31.57558273,-58.33439578,COLONIA OFICIAL N° 5,SAN SALVADOR,ENTRE RÍOS,,,,,,
COLONIA SAN MARTIN,3.0099E+14,3.0099E+14,-32.34236749,-58.64816979,ARROYO GENA,URUGUAY,ENTRE RÍOS,,,,,,
ESTANCIA LA SILVIA,3.0099E+14,3.0099E+14,-32.11986266,-58.70650683,ARROYO GENA,URUGUAY,ENTRE RÍOS,,,,,,
COLONIA SAGASTUME,3.0099E+14,3.0099E+14,-32.0500102,-58.74989902,ARROYO GENA,URUGUAY,ENTRE RÍOS,,,,,,
COLONIA SAN RAMON,3.0099E+14,3.0099E+14,-32.38841587,-58.33504207,SAN CIPRIANO,URUGUAY,ENTRE RÍOS,,,,,,
SAN CIPRIANO,3.0099E+14,3.0099E+14,-32.341733,-58.354468,SAN CIPRIANO,URUGUAY,ENTRE RÍOS,,,,,,
LAS ACHIRAS,3.0099E+14,3.0099E+14,-32.3053893,-58.35851754,SAN CIPRIANO,URUGUAY,ENTRE RÍOS,,,,,,
LOS CEIBOS,3.0099E+14,3.0099E+14,-32.61841391,-58.42112859,TALA,URUGUAY,ENTRE RÍOS,,,,,,
DISTRITO CHILCAS,3.0106E+14,3.0106E+14,-32.31229222,-60.31125862,CHILCAS,VICTORIA,ENTRE RÍOS,,,,,,
DISTRITO HINOJAL,3.0106E+14,3.0106E+14,-32.33343107,-60.16298947,HINOJAL,VICTORIA,ENTRE RÍOS,,,,,,
RINCON DEL DOLL,3.0106E+14,3.0106E+14,-32.3626227,-60.34535525,RINCON DEL DOLL,VICTORIA,ENTRE RÍOS,,,,,,
MONTOYA,3.0106E+14,3.0106E+14,-32.6411401,-59.87437759,MONTOYA,VICTORIA,ENTRE RÍOS,,,,,,
COLONIA ADIVINOS,3.0114E+14,3.0114E+14,-31.31692609,-59.30856695,COLONIA ADIVINO,VILLAGUAY,ENTRE RÍOS,,,,,,
EL CHAJARI,3.0114E+14,3.0114E+14,-31.54069837,-59.34199025,PARAJE LOS ALGARROBOS,VILLAGUAY,ENTRE RÍOS,,,,,,
PICHI MAHUIDA,6.20635E+14,6.20635E+14,-38.82961362,-64.93741981,PICHI MAHUIDA,PICHI MAHUIDA,RÍO NEGRO,,,,,,
MINA 3,7.80219E+14,7.80219E+14,-51.54876605,-72.23339098,MINA 3,GUER AIKE,SANTA CRUZ,,,,,,
MAUA,82021A36,,-30.768702,-61.258321,MAUA,CASTELLANOS,SANTA FE,,,,,,
LA POTASA,8.20493E+14,8.20493E+14,-29.1413202,-59.76114081,NICANOR MOLINAS,GENERAL OBLIGADO,SANTA FE,,,,,,
DOS ROSAS Y LA LEGUA,8.20914E+14,8.20914E+14,-30.588125,-61.9758256,DOS ROSAS Y LA LEGUA,SAN CRISTOBAL,SANTA FE,,,,,,
LA DARSENA,8.60356E+14,8.60356E+14,-27.72755227,-64.24579847,SAN RAMON - LA DARSENA,BANDA,SANTIAGO DEL ESTERO,,,,,,
SAN RAMON,8.60356E+14,8.60356E+14,-27.7004,-64.27837,SAN RAMON - LA DARSENA,BANDA,SANTIAGO DEL ESTERO,,,,,,
EL ZANJON,8.60496E+14,8.60496E+14,-27.88604058,-64.17307978,VILLA ZANJON,CAPITAL,SANTIAGO DEL ESTERO,,,,,,
VILLA MATOQUE,8.60566E+14,8.60566E+14,-25.83161256,-63.79513141,VILLA MATOQUE,COPO,SANTIAGO DEL ESTERO,,,,,,
GUAMPACHA,8.60846E+14,8.60846E+14,-28.01271,-64.79012,GUAMPACHA,GUASAYAN,SANTIAGO DEL ESTERO,,,,,,
VILLA GUASAYAN,8.60846E+14,8.60846E+14,-27.88479,-64.85159,VILLA GUASAYAN,GUASAYAN,SANTIAGO DEL ESTERO,,,,,,
POZO DEL TOBA,8.60987E+14,8.60987E+14,-27.95090645,-61.99804769,POZO DEL TOBA,JUAN F IBARRA,SANTIAGO DEL ESTERO,,,,,,
QUEBRACHO COTO,8.61337E+14,8.61337E+14,-26.28378049,-64.46746377,QUEBRACHO COTO,PELLEGRINI,SANTIAGO DEL ESTERO,,,,,,
VILLA ROBLES,8.61617E+14,8.61617E+14,-27.92487,-64.10821,VILLA ROBLES,ROBLES,SANTIAGO DEL ESTERO,,,,,,
SIMOCA,9.0091E+14,9.0091E+14,-27.26242267,-65.35528947,SIMOCA,SIMOCA,TUCUMÁN,,,,,,
SOLDADO MALDONADO,9.00708E+14,9.00708E+14,-27.14233601,-65.5656822,SOLDADO MALDONADO,MONTEROS,TUCUMÁN,,,,,,
LOS PEREYRA NORTE,9.00148E+14,9.00148E+14,-26.94043732,-64.87695313,LOS PEREYRA,CRUZ ALTA,TUCUMÁN,,,,,,
SOL DE MAYO,8.60496E+14,8.60496E+14,-27.70388,-64.58849,SOL DE MAYO,CAPITAL,SANTIAGO DEL ESTERO,,,,,,
JUANILLO,8.60216E+14,8.60216E+14,-28.59715,-63.69028,JUANILLO,ATAMISQUI,SANTIAGO DEL ESTERO,,,,,,
PUNTA POZO,8.60286E+14,8.60286E+14,-28.49739679,-63.62277478,PUNTA POZO,AVELLANEDA,SANTIAGO DEL ESTERO,,,,,,
EL AIBE,8.60356E+14,8.60356E+14,-27.58601488,-64.2608784,EL AIBE,BANDA,SANTIAGO DEL ESTERO,,,,,,
ABRA GRANDE,8.60356E+14,8.60356E+14,-27.29313302,-64.37906453,ABRA GRANDE,BANDA,SANTIAGO DEL ESTERO,,,,,,
REMES,8.60496E+14,8.60496E+14,-27.85658967,-64.53379074,REMES,CAPITAL,SANTIAGO DEL ESTERO,,,,,,
SAN BENITO,8.60496E+14,8.60496E+14,-28.14621,-64.48821,SAN BENITO,CAPITAL,SANTIAGO DEL ESTERO,,,,,,
EL DEAN,8.60496E+14,8.60496E+14,-27.73516978,-64.30576917,EL DEAN,CAPITAL,SANTIAGO DEL ESTERO,,,,,,
SAN VICENTE,8.61056E+14,8.61056E+14,-28.48865398,-64.13637705,SAN VICENTE,LORETO,SANTIAGO DEL ESTERO,,,,,,
SANTA CATALINA,8.60846E+14,8.60846E+14,-28.12767215,-64.78335763,SANTA CATALINA,GUASAYAN,SANTIAGO DEL ESTERO,,,,,,
SANTA MARIA,8.60496E+14,8.60496E+14,-27.9635433,-64.1529364,SANTA MARIA,CAPITAL,SANTIAGO DEL ESTERO,,,,,,
CASPI CORRAL,8.60706E+14,8.60706E+14,-27.39076151,-63.54895619,CASPI CORRAL,FIGUEROA,SANTIAGO DEL ESTERO,,,,,,
VACA HUAÑUNA,8.60706E+14,8.60706E+14,-27.47449261,-63.46993753,VACA HUAÑUNA,FIGUEROA,SANTIAGO DEL ESTERO,,,,,,
CANAL MELERO,8.60987E+14,8.60987E+14,-28.3169,-62.96468,MELERO,JUAN F IBARRA,SANTIAGO DEL ESTERO,,,,,,
LA SIMONA,8.60776E+14,8.60776E+14,-28.37352779,-61.87555346,LA NENA - LA SIMONA,GENERAL TABOADA,SANTIAGO DEL ESTERO,,,,,,
LA NENA,8.60776E+14,8.60776E+14,-28.45462416,-61.74188313,LA NENA - LA SIMONA,GENERAL TABOADA,SANTIAGO DEL ESTERO,,,,,,
TRES CRUCES,8.60916E+14,8.60916E+14,-27.20007,-64.68089,TRES CRUCES,JIMENEZ,SANTIAGO DEL ESTERO,,,,,,
YUCHAN,8.60986E+14,8.60986E+14,-27.78221621,-62.9003451,YUCHAN,JUAN F IBARRA,SANTIAGO DEL ESTERO,,,,,,
LA NORIA,8.61051E+11,,-28.578263,-64.115681,LA NORIA,LORETO,SANTIAGO DEL ESTERO,,,,,,
SAUCE SOLO,8.61056E+14,8.61056E+14,-28.57126879,-64.2544732,SAUCE SOLO,LORETO,SANTIAGO DEL ESTERO,,,,,,
AMAMA,8.61197E+14,8.61197E+14,-27.20879,-63.03976,AMAMA,MORENO,SANTIAGO DEL ESTERO,,,,,,
VILLA BRANA,8.61197E+14,8.61197E+14,-27.34717422,-62.91397135,VILLA BRANA,MORENO,SANTIAGO DEL ESTERO,,,,,,
LIBERTAD,8.61197E+14,8.61197E+14,-27.07586688,-63.07089038,LIBERTAD,MORENO,SANTIAGO DEL ESTERO,,,,,,
NEGRA MUERTA,8.60356E+14,8.60356E+14,-27.50989965,-64.11713354,NEGRA MUERTA,BANDA,SANTIAGO DEL ESTERO,,,,,,
KM 49,8.61266E+14,8.61266E+14,-29.08679938,-63.87582816,KILOMETRO 49,OJO DE AGUA,SANTIAGO DEL ESTERO,,,,,,
CAMPO GRANDE,8.61337E+14,8.61337E+14,-26.37205403,-63.97354365,CAMPO GRANDE,PELLEGRINI,SANTIAGO DEL ESTERO,,,,,,
VILLA MERCEDES,8.61337E+14,8.61337E+14,-26.46814729,-64.16785018,VILLA MERCEDES,PELLEGRINI,SANTIAGO DEL ESTERO,,,,,,
SANTO DOMINGO,8.61337E+14,8.61337E+14,-26.25468855,-63.75524586,SANTO DOMINGO,PELLEGRINI,SANTIAGO DEL ESTERO,,,,,,
AMICHA,8.61477E+14,8.61477E+14,-27.63972618,-64.86405443,AMICHA,RIO HONDO,SANTIAGO DEL ESTERO,,,,,,
LEZCANOS,8.61477E+14,8.61477E+14,-27.50364,-64.76452,LESCANO,RIO HONDO,SANTIAGO DEL ESTERO,,,,,,
LOS OVEJEROS,8.61477E+14,8.61477E+14,-27.49707739,-64.70889272,LOS OVEJEROS,RIO HONDO,SANTIAGO DEL ESTERO,,,,,,
SOTELOS,8.61477E+14,8.61477E+14,-27.46616,-64.72653,SOTELO,RIO HONDO,SANTIAGO DEL ESTERO,,,,,,
LOS ROMANOS,8.61617E+14,8.61617E+14,-27.80840504,-64.1842269,LOS ROMANOS - SANTO DOMINGO,ROBLES,SANTIAGO DEL ESTERO,,,,,,
VILLA HIPOLITA,8.61617E+14,8.61617E+14,-27.76267,-63.98916,VILLA HIPOLITA,ROBLES,SANTIAGO DEL ESTERO,,,,,,
VACA HUMAN,8.61687E+14,8.61687E+14,-28.91949981,-63.6288101,VACA HUMAN,SALAVINA,SANTIAGO DEL ESTERO,,,,,,
TIO POZO,8.61056E+14,8.61056E+14,-28.40492922,-63.98268418,TIO POZO,LORETO,SANTIAGO DEL ESTERO,,,,,,
VILLA NUEVA,8.61757E+14,8.61757E+14,-28.33004823,-63.92817039,VILLA NUEVA,SAN MARTIN,SANTIAGO DEL ESTERO,,,,,,
HUACHANA,8.60146E+14,8.60146E+14,-26.41494,-63.50093,HUACHANA,ALBERDI,SANTIAGO DEL ESTERO,,,,,,
SUMAMAO,8.61897E+14,8.61897E+14,-28.19675753,-64.03571727,SUMAMAO,SILIPICA,SANTIAGO DEL ESTERO,,,,,,
AHI VEREMOS,8.60566E+14,8.60566E+14,-25.72948778,-63.46601397,AHI VEREMOS,COPO,SANTIAGO DEL ESTERO,,,,,,
POZO DEL ARBOLITO,8.61477E+14,8.61477E+14,-27.68314,-64.97924,ACOS - POZO DEL ARBOLITO,RIO HONDO,SANTIAGO DEL ESTERO,,,,https://gis.obraspublicas.gob.ar/layers/public_wxs/,ejidos_gob_locales_norte,<Filter><PropertyIsEqualTo><PropertyName>codigo_de_</PropertyName><Literal>861476854</Literal></PropertyIsEqualTo></Filter>
COLONIA PUENTE DEL GUALEG,3.00089E+14,3.00089E+14,-32.14916742,-58.56343958,SAN MIGUEL,COLON,ENTRE RÍOS,,,,,,
COLONIA LAS PEPAS,3.00089E+14,3.00089E+14,-32.10013763,-58.62690067,SAN MIGUEL,COLON,ENTRE RÍOS,,,,,,
COLONIA SANTA ROSA,3.00089E+14,3.00089E+14,-31.94265318,-58.66530595,SAN MIGUEL,COLON,ENTRE RÍOS,,,,,,
SAN MIGUEL,3.00089E+14,3.00089E+14,-32.04659653,-58.57722473,SAN MIGUEL,COLON,ENTRE RÍOS,,,,,,
COLONIA NUEVA SAN MIGUEL,3.00089E+14,3.00089E+14,-32.06163133,-58.55394443,SAN MIGUEL,COLON,ENTRE RÍOS,,,,,,
ROLDAN,8.60987E+14,8.60987E+14,-27.80385,-63.11604,SAN ANTONIO - ROLDAN,JUAN F IBARRA,SANTIAGO DEL ESTERO,,,,,,
SAN ANTONIO,8.60987E+14,8.60987E+14,-27.79000908,-63.15551869,SAN ANTONIO - ROLDAN,JUAN F IBARRA,SANTIAGO DEL ESTERO,,,,,,
PUNTA DEL MONTE,3.00499E+14,3.00499E+14,-33.06751963,-59.64367116,ALBARDON - PUNTA DEL MONTE,GUALEGUAY,ENTRE RÍOS,,,,,,
EL HOYON,8.60216E+14,8.60216E+14,-28.62926,-63.95973,HOYON,ATAMISQUI,SANTIAGO DEL ESTERO,,,,,,
POZO AZUL,5.41121E+14,5.41121E+14,-26.34695049,-54.15002011,POZO AZUL,SAN PEDRO,MISIONES,,,,,,
NUESTRA SEÑORA DE ITATI,5.41121E+14,5.41121E+14,-26.27311563,-53.82737699,POZO AZUL,SAN PEDRO,MISIONES,,,,,,
DURAN,5.41121E+14,5.41121E+14,-26.38234004,-53.89956101,POZO AZUL,SAN PEDRO,MISIONES,,,,,,
TRES VECINOS,5.41121E+14,5.41121E+14,-26.31016634,-53.82321692,POZO AZUL,SAN PEDRO,MISIONES,,,,,,
FORESTAL (SAN ANTONIO),5.41121E+14,5.41121E+14,-26.33169752,-53.87092839,POZO AZUL,SAN PEDRO,MISIONES,,,,,,
DISTRITO TALA,3.0085E+14,3.0085E+14,-31.735879,-60.044546,DISTRITO TALA,PARANA,ENTRE RÍOS,,,,,,
LAGO MELIQUINA,5.80565E+14,5.80565E+14,-40.38168755,-71.26161528,VILLA LAGO MELIQUINA,LACAR,NEUQUÉN,,,,,,
AHI VEREMOS,8.61337E+14,8.61337E+14,-25.85492,-63.91247,AHI VEREMOS,PELLEGRINI,SANTIAGO DEL ESTERO,,,,,,
EL SAUZAL,8.61477E+14,8.61477E+14,-27.48910467,-64.58183865,EL SAUZAL,RIO HONDO,SANTIAGO DEL ESTERO,,,,,,
COLONIA ABORIGEN CHACO,2.2133E+14,2.2133E+14,-26.98340491,-60.23453298,COLONIA ABORIGEN,25 DE MAYO,CHACO,,,,,,
COLONIA ABORIGEN,2.2168E+14,2.2168E+14,-26.95834364,-60.19023705,COLONIA ABORIGEN,25 DE MAYO,CHACO,,,,,,
ATOJ POZO,8.61757E+14,8.61757E+14,-28.2954,-63.86655,ATOJ POZO,SAN MARTIN,SANTIAGO DEL ESTERO,,,,,,
VUELTA DE LA BARRANCA,8.60496E+14,8.60496E+14,-27.87298113,-64.12760381,VUELTA DE LA BARRANCA,CAPITAL,SANTIAGO DEL ESTERO,,,,,,
COLONIA REFFINO,3.0085E+14,3.0085E+14,-31.93650466,-60.37453919,COLONIA REFFINO,PARANA,ENTRE RÍOS,,,,,,
ESTACION YUQUERI,3.00159E+14,3.00159E+14,-31.39638124,-58.16115354,ESTACION YUQUERI,CONCORDIA,ENTRE RÍOS,,,,,,
LOMA LIMPIA,3.00359E+14,3.00359E+14,-30.81738568,-59.04020264,EL GATO - LOMA LIMPIA,FEDERAL,ENTRE RÍOS,,,,,,
EL GATO,3.00359E+14,3.00359E+14,-30.7300649,-59.01313668,EL GATO - LOMA LIMPIA,FEDERAL,ENTRE RÍOS,,,,,,
COLONIA OFICIAL Nº 13,3007000000A18000000,,-30.6792,-59.1646,COLONIA OFICIAL N° 13,LA PAZ,ENTRE RÍOS,,,,,,
GONZALEZ CALDERON,3.00499E+14,3.00499E+14,-32.97774899,-59.41216807,GONZALEZ CALDERON,GUALEGUAY,ENTRE RÍOS,,,,,,
LAS TOSCAS,3.00709E+14,3.00709E+14,-30.49458317,-59.10219813,LAS TOSCAS,LA PAZ,ENTRE RÍOS,,,,,,
CRUCESITAS TERCERA,300779535000A11,,-32.3889,-59.9333,CRUCESITAS TERCERA,NOGOYA,ENTRE RÍOS,,,,,,
DISTRITO COSTA URUGUAY SUR,3.00569E+14,3.00569E+14,-33.07416698,-58.50488032,COSTA URUGUAY SUR,GUALEGUAYCHU,ENTRE RÍOS,,,,,,
MONTE REDONDO,3.00499E+14,3.00499E+14,-32.9533176,-59.75380123,MONTE REDONDO (O 7° DISTRITO),GUALEGUAY,ENTRE RÍOS,,,,,,
LAS TUNAS,3.00289E+14,3.00289E+14,-30.33938936,-58.21196612,COLONIA TUNAS,FEDERACION,ENTRE RÍOS,,,,,,
SAUCE SUD,3.0092E+14,3.0092E+14,-32.66373653,-59.21264734,SAUCE SUR,TALA,ENTRE RÍOS,,,,,,
LOS CAJONES,7.40499E+14,7.40499E+14,-32.02575131,-65.37493615,LOS CAJONES,JUNIN,SAN LUIS,,,,,,
LAS BARRANCAS,7.40499E+14,7.40499E+14,-32.03662872,-65.39228058,LOS CAJONES,JUNIN,SAN LUIS,,,,,,
LAS ISLITAS,7.40499E+14,7.40499E+14,-32.09267044,-65.45449829,LOS CAJONES,JUNIN,SAN LUIS,,,,,,
SANTA ANA,7.40499E+14,7.40499E+14,-32.03922154,-65.39346328,LOS CAJONES,JUNIN,SAN LUIS,,,,,,
BALDE DE ESCUDERO,7.40499E+14,7.40499E+14,-32.09212653,-65.56649133,LOS CAJONES,JUNIN,SAN LUIS,,,,,,
LAS PALOMAS,7.40499E+14,7.40499E+14,-32.06323545,-65.4731808,LOS CAJONES,JUNIN,SAN LUIS,,,,,,
COLONIA CECILIO ECHEVERRIA,1.8091E+14,1.8091E+14,-28.939317,-59.147804,CECILIO ECHAVARRIA,LAVALLE,CORRIENTES,,,,,,
CAZADORES CORRENTINOS,1.8035E+14,1.8035E+14,-29.97878273,-58.30243567,CAZADORES CORRENTINOS,CURUZU CUATIA,CORRIENTES,,,,,,
LAS GRUTAS,6.2077E+14,6.2077E+14,-40.80609332,-65.08470198,LAS GRUTAS,SAN ANTONIO,RÍO NEGRO,,,,,,
CAMPO HARDY,8.20493E+14,8.20493E+14,-28.14476068,-59.26115534,HARDY,GENERAL OBLIGADO,SANTA FE,,,,,,
LOS TABANOS,8.21334E+14,8.21334E+14,-28.45654797,-59.982616,LOS TABANOS,VERA,SANTA FE,,,,,,
EL CRUCERO,8.60706E+14,8.60706E+14,-27.58254573,-63.28860581,EL CRUCE,FIGUEROA,SANTIAGO DEL ESTERO,,,,,,
SALTO ENCANTADO,5.4014E+14,5.4014E+14,-27.08227979,-54.83348561,SALTO ENCANTADO,CAINGUAS,MISIONES,,,,,,
ALGARROBAL,1.8161E+14,1.8161E+14,-28.88393134,-58.78485627,9 DE JULIO,SAN ROQUE,CORRIENTES,,,,,,
CERNA,1.8161E+14,1.8161E+14,-28.87164064,-58.86777727,9 DE JULIO,SAN ROQUE,CORRIENTES,,,,,,
COSTA SANTA LUCIA,1.8161E+14,1.8161E+14,-28.8131898,-58.9311883,9 DE JULIO,SAN ROQUE,CORRIENTES,,,,,,
9 DE JULIO,1.8161E+14,1.8161E+14,-28.84183486,-58.82804638,9 DE JULIO,SAN ROQUE,CORRIENTES,,,,,,
COLONIA JUAN RAMON VIDAL,1.8161E+14,1.8161E+14,-28.86376769,-58.82171829,9 DE JULIO,SAN ROQUE,CORRIENTES,,,,,,
ARROYO VENTANA,6.20845E+14,6.20845E+14,-41.66539378,-66.08601356,ARROYO VENTANA,VALCHETA,RÍO NEGRO,,,,,,
CAÑADA SECA,6.39204E+13,6.39204E+13,-34.41550546,-62.96185538,GENERAL VILLEGAS,GENERAL VILLEGAS,BUENOS AIRES,,,,,,
SAN GENARO,6.39204E+13,6.39204E+13,-34.7236644,-63.2305756,GENERAL VILLEGAS,GENERAL VILLEGAS,BUENOS AIRES,,,,,,
LOS LAURELES,6.39204E+13,6.39204E+13,-35.1243704,-62.8879677,GENERAL VILLEGAS,GENERAL VILLEGAS,BUENOS AIRES,,,,,,
MASSEY,6.39204E+13,6.39204E+13,-35.04908923,-63.12188768,GENERAL VILLEGAS,GENERAL VILLEGAS,BUENOS AIRES,,,,,,
ESTANCIA EL MERIDIANO,6.39204E+13,6.39204E+13,-35.221642,-63.3265828,GENERAL VILLEGAS,GENERAL VILLEGAS,BUENOS AIRES,,,,,,
GENERAL VILLEGAS,6.39204E+13,6.39204E+13,-35.03384199,-63.01466371,GENERAL VILLEGAS,GENERAL VILLEGAS,BUENOS AIRES,,,,,,
COLONIA LA BELITA,6.39204E+13,6.39204E+13,-34.7937801,-62.7583179,GENERAL VILLEGAS,GENERAL VILLEGAS,BUENOS AIRES,,,,,,
LA JOSEFA,6.39204E+13,6.39204E+13,-34.62654,-62.9779,GENERAL VILLEGAS,GENERAL VILLEGAS,BUENOS AIRES,,,,,,
GONDRA,6.39204E+13,6.39204E+13,-34.74862671,-63.35181046,GENERAL VILLEGAS,GENERAL VILLEGAS,BUENOS AIRES,,,,,,
VILLA CICLON,6.39204E+13,6.39204E+13,-35.02641345,-63.0245813,GENERAL VILLEGAS,GENERAL VILLEGAS,BUENOS AIRES,,,,,,
MOORES,6.39204E+13,6.39204E+13,-34.9561332,-62.9115124,GENERAL VILLEGAS,GENERAL VILLEGAS,BUENOS AIRES,,,,,,
CAMPOS FRIA,6.39204E+13,6.39204E+13,-34.8659429,-63.2990358,GENERAL VILLEGAS,GENERAL VILLEGAS,BUENOS AIRES,,,,,,
PICHINCHA,6.39204E+13,6.39204E+13,-34.58045167,-62.35163952,GENERAL VILLEGAS,GENERAL VILLEGAS,BUENOS AIRES,,,,,,
DRABBLE,6.39204E+13,6.39204E+13,-34.91954028,-62.7631617,GENERAL VILLEGAS,GENERAL VILLEGAS,BUENOS AIRES,,,,,,
EL RECAO,6.39204E+13,6.39204E+13,-35.0650802,-62.7519696,GENERAL VILLEGAS,GENERAL VILLEGAS,BUENOS AIRES,,,,,,
SAN JOSE,6.39204E+13,6.39204E+13,-35.2006073,-63.05029297,GENERAL VILLEGAS,GENERAL VILLEGAS,BUENOS AIRES,,,,,,
ESCUELA AGRARIA,6.39204E+13,6.39204E+13,-34.9939394,-63.036951,GENERAL VILLEGAS,GENERAL VILLEGAS,BUENOS AIRES,,,,,,
FORTIN REPUBLICA,6.39204E+13,6.39204E+13,-34.4937973,-63.30241776,GENERAL VILLEGAS,GENERAL VILLEGAS,BUENOS AIRES,,,,,,
LA MARGARITA,6.39204E+13,6.39204E+13,-34.4708095,-62.2909553,GENERAL VILLEGAS,GENERAL VILLEGAS,BUENOS AIRES,,,,,,
ESTACION MILLACO,6.39204E+13,6.39204E+13,-35.2372804,-62.9909231,GENERAL VILLEGAS,GENERAL VILLEGAS,BUENOS AIRES,,,,,,
VILLA SABOYA,6.39204E+13,6.39204E+13,-34.46079163,-62.64934446,GENERAL VILLEGAS,GENERAL VILLEGAS,BUENOS AIRES,,,,,,
EL DIA,6.39204E+13,6.39204E+13,-34.7401431,-62.8363789,GENERAL VILLEGAS,GENERAL VILLEGAS,BUENOS AIRES,,,,,,
CUARTEL II,6.39204E+13,6.39204E+13,-35.0480151,-62.9429754,GENERAL VILLEGAS,GENERAL VILLEGAS,BUENOS AIRES,,,,,,
CORONEL CHARLONE,6.39204E+13,6.39204E+13,-34.67299456,-63.37244548,GENERAL VILLEGAS,GENERAL VILLEGAS,BUENOS AIRES,,,,,,
PIEDRITAS,6.39204E+13,6.39204E+13,-34.77110454,-62.98469658,GENERAL VILLEGAS,GENERAL VILLEGAS,BUENOS AIRES,,,,,,
VILLA SAUZE,6.39204E+13,6.39204E+13,-35.28582982,-63.36820555,GENERAL VILLEGAS,GENERAL VILLEGAS,BUENOS AIRES,,,,,,
LA CATALINA,6.39204E+13,6.39204E+13,-34.98356,-63.1568703,GENERAL VILLEGAS,GENERAL VILLEGAS,BUENOS AIRES,,,,,,
SANTA ELEODORA,6.39204E+13,6.39204E+13,-34.69211801,-62.69579327,GENERAL VILLEGAS,GENERAL VILLEGAS,BUENOS AIRES,,,,,,
TAMBEROS UNIDOS,6.39204E+13,6.39204E+13,-34.5923089,-63.3831985,GENERAL VILLEGAS,GENERAL VILLEGAS,BUENOS AIRES,,,,,,
LOS ANGELES,6.39204E+13,6.39204E+13,-34.492135,-62.5510671,GENERAL VILLEGAS,GENERAL VILLEGAS,BUENOS AIRES,,,,,,
EMILIO V. BUNGE,6.39204E+13,6.39204E+13,-34.77983283,-63.19609649,GENERAL VILLEGAS,GENERAL VILLEGAS,BUENOS AIRES,,,,,,
BANDERALO,6.39204E+13,6.39204E+13,-35.01246666,-63.37415635,GENERAL VILLEGAS,GENERAL VILLEGAS,BUENOS AIRES,,,,,,
VOLTA,6.39204E+13,6.39204E+13,-34.96721041,-62.66179606,GENERAL VILLEGAS,GENERAL VILLEGAS,BUENOS AIRES,,,,,,
CAMPESINOS UNIDOS,6.39204E+13,6.39204E+13,-34.8579191,-63.1611931,GENERAL VILLEGAS,GENERAL VILLEGAS,BUENOS AIRES,,,,,,
SANTA REGINA,6.39204E+13,6.39204E+13,-34.54833566,-63.17327287,GENERAL VILLEGAS,GENERAL VILLEGAS,BUENOS AIRES,,,,,,
LA TRADICION,6.39204E+13,6.39204E+13,-34.434653,-63.2803744,GENERAL VILLEGAS,GENERAL VILLEGAS,BUENOS AIRES,,,,,,
CANNING,6.26003E+13,6.26003E+13,-34.88497914,-58.47780994,ESTEBAN ECHEVERRIA,ESTEBAN ECHEVERRIA,BUENOS AIRES,,,,,,
LUIS GUILLON,6.26003E+13,6.26003E+13,-34.80019644,-58.45309641,ESTEBAN ECHEVERRIA,ESTEBAN ECHEVERRIA,BUENOS AIRES,,,,,,
9 DE ABRIL,6.26003E+13,6.26003E+13,-34.75650758,-58.49029235,ESTEBAN ECHEVERRIA,ESTEBAN ECHEVERRIA,BUENOS AIRES,,,,,,
MONTE GRANDE,6.26003E+13,6.26003E+13,-34.81913686,-58.47269476,ESTEBAN ECHEVERRIA,ESTEBAN ECHEVERRIA,BUENOS AIRES,,,,,,
EL JAGUEL,6.26003E+13,6.26003E+13,-34.8304505,-58.49486942,ESTEBAN ECHEVERRIA,ESTEBAN ECHEVERRIA,BUENOS AIRES,,,,,,
VILLA HUIDOBRO,1.4035E+14,1.4035E+14,-34.83718177,-64.58335717,VILLA HUIDOBRO,GENERAL ROCA,CÓRDOBA,,,,,,
LA JUANITA,3.00219E+14,3.00219E+14,-31.8753768,-60.64912197,COLONIA ENSAYO,DIAMANTE,ENTRE RÍOS,,,,,,
LA JAULA,3.00219E+14,3.00219E+14,-31.83271848,-60.60484716,COLONIA ENSAYO,DIAMANTE,ENTRE RÍOS,,,,,,
COLONIA ENSAYO,3.00219E+14,3.00219E+14,-31.86725726,-60.57529019,COLONIA ENSAYO,DIAMANTE,ENTRE RÍOS,,,,,,
LOS CERRILLOS,6.54705E+13,6.54705E+13,-35.70469676,-58.71156265,MONTE,MONTE,BUENOS AIRES,,,,,,
FUNKE,6.54705E+13,6.54705E+13,-35.4618454,-58.98197937,MONTE,MONTE,BUENOS AIRES,,,,,,
SAN MIGUEL DEL MONTE,6.54705E+13,6.54705E+13,-35.43916432,-58.80945984,MONTE,MONTE,BUENOS AIRES,,,,,,
LA ELINA,6.54705E+13,6.54705E+13,-35.3966223,-58.9963732,MONTE,MONTE,BUENOS AIRES,,,,,,
SAN GENARO,6.54705E+13,6.54705E+13,-35.61764526,-58.84848786,MONTE,MONTE,BUENOS AIRES,,,,,,
ABBOTT,6.54705E+13,6.54705E+13,-35.28250621,-58.80426191,MONTE,MONTE,BUENOS AIRES,,,,,,
SANTA MARIA,6.54705E+13,6.54705E+13,-35.5434312,-58.6674757,MONTE,MONTE,BUENOS AIRES,,,,,,
EL ROSARIO,6.54705E+13,6.54705E+13,-35.48086166,-58.80995178,MONTE,MONTE,BUENOS AIRES,,,,,,
EL SIASGO,6.54705E+13,6.54705E+13,-35.6888332,-58.5679214,MONTE,MONTE,BUENOS AIRES,,,,,,
ZENON VIDELA DORNA,6.54705E+13,6.54705E+13,-35.5447734,-58.88559119,MONTE,MONTE,BUENOS AIRES,,,,,,
GOYENECHE,6.54705E+13,6.54705E+13,-35.33557892,-58.72175598,MONTE,MONTE,BUENOS AIRES,,,,,,
SAN MARCELO,6.54705E+13,6.54705E+13,-35.4898149,-58.5680359,MONTE,MONTE,BUENOS AIRES,,,,,,
EL DORADO,6.54705E+13,6.54705E+13,-35.5785579,-58.9391774,MONTE,MONTE,BUENOS AIRES,,,,,,
LA COSTA,6.54705E+13,6.54705E+13,-35.50542465,-58.95341602,MONTE,MONTE,BUENOS AIRES,,,,,,
MAHON,6.54705E+13,6.54705E+13,-35.3743493,-58.692644,MONTE,MONTE,BUENOS AIRES,,,,,,
SANTO DOMINGO,8.20703E+14,8.20703E+14,-31.12227684,-60.88888546,SANTO DOMINGO,LAS COLONIAS,SANTA FE,,,,,,
TRES CAPONES,5.4007E+14,5.4007E+14,-28.00008727,-55.60804288,TRES CAPONES,APOSTOLES,MISIONES,,,,,,
LAS TUNAS,5.4007E+14,5.4007E+14,-27.95763287,-55.66119854,TRES CAPONES,APOSTOLES,MISIONES,,,,,,
COLONIA SANTA ELOISA,3.0028E+14,3.0028E+14,-30.775065,-57.84201024,VILLA DEL ROSARIO,FEDERACION,ENTRE RÍOS,,,,,,
VILLA DEL ROSARIO,3.0028E+14,3.0028E+14,-30.79683186,-57.91157192,VILLA DEL ROSARIO,FEDERACION,ENTRE RÍOS,,,,,,
MANFREDI,1.41191E+14,1.41191E+14,-31.84405856,-63.74607461,MANFREDI,RIO SEGUNDO,CÓRDOBA,,,,,,
LAS TINAJAS,8.61197E+14,8.61197E+14,-27.46147289,-62.9188089,LAS TINAJAS,MORENO,SANTIAGO DEL ESTERO,,,,,,
ARAUCO,4.6007E+14,4.6007E+14,-28.58340319,-66.80364129,ARAUCO,ARAUCO,LA RIOJA,,,,,,
AIMOGASTA,4.6007E+14,4.6007E+14,-28.55898985,-66.8272851,ARAUCO,ARAUCO,LA RIOJA,,,,,,
UDPINANGO,4.6007E+14,4.6007E+14,-28.67756725,-66.81429788,ARAUCO,ARAUCO,LA RIOJA,,,,,,
LA CAUCHITA,4.6007E+14,4.6007E+14,-28.39065629,-66.57157273,ARAUCO,ARAUCO,LA RIOJA,,,,,,
TINOCAN,4.6007E+14,4.6007E+14,-28.6289463,-66.5932312,ARAUCO,ARAUCO,LA RIOJA,,,,,,
LA CIMBRITA,4.6007E+14,4.6007E+14,-28.34101992,-66.67336582,ARAUCO,ARAUCO,LA RIOJA,,,,,,
TERMAS DE SANTA TERESITA,4.6007E+14,4.6007E+14,-28.59177497,-66.55638859,ARAUCO,ARAUCO,LA RIOJA,,,,,,
SAN ANTONIO,4.6007E+14,4.6007E+14,-28.55538014,-66.80138565,ARAUCO,ARAUCO,LA RIOJA,,,,,,
ESTACION MAZAN,4.6007E+14,4.6007E+14,-28.6648263,-66.51661956,ARAUCO,ARAUCO,LA RIOJA,,,,,,
VILLA MAZAN,4.6007E+14,4.6007E+14,-28.65862818,-66.55527589,ARAUCO,ARAUCO,LA RIOJA,,,,,,
BAÑADO DE LOS PANTANOS,4.6007E+14,4.6007E+14,-28.3871788,-66.83691224,ARAUCO,ARAUCO,LA RIOJA,,,,,,
MACHIGASTA,4.6007E+14,4.6007E+14,-28.54108438,-66.80702961,ARAUCO,ARAUCO,LA RIOJA,,,,,,
LA CANCHITA,4.6007E+14,4.6007E+14,-28.39283371,-66.56823731,ARAUCO,ARAUCO,LA RIOJA,,,,,,
CUESTA BLANCA,1.40912E+14,1.40912E+14,-31.47877819,-64.57734669,CUESTA BLANCA,PUNILLA,CÓRDOBA,,,,,,
TRES LOMAS,6.06301E+13,6.06301E+13,-37.4085551,-58.1355794,BALCARCE,BALCARCE,BUENOS AIRES,,,,,,
EL PANTANOSO,6.06301E+13,6.06301E+13,-37.6301117,-58.06595996,BALCARCE,BALCARCE,BUENOS AIRES,,,,,,
SAN SILVERIO,6.06301E+13,6.06301E+13,-38.0435607,-58.1828041,BALCARCE,BALCARCE,BUENOS AIRES,,,,,,
LOS CARDOS,6.06301E+13,6.06301E+13,-37.73226229,-58.02960989,BALCARCE,BALCARCE,BUENOS AIRES,,,,,,
BALCARCE,6.06301E+13,6.06301E+13,-37.84827793,-58.25516658,BALCARCE,BALCARCE,BUENOS AIRES,,,,,,
LA SARA,6.06301E+13,6.06301E+13,-37.5477562,-58.21223452,BALCARCE,BALCARCE,BUENOS AIRES,,,,,,
EL GLIPTODONTE,6.06301E+13,6.06301E+13,-37.5886373,-57.9930625,BALCARCE,BALCARCE,BUENOS AIRES,,,,,,
TRES ESQUINAS,6.06301E+13,6.06301E+13,-37.9213463,-58.40084186,BALCARCE,BALCARCE,BUENOS AIRES,,,,,,
ALELUYA,6.06301E+13,6.06301E+13,-37.5739424,-58.6177189,BALCARCE,BALCARCE,BUENOS AIRES,,,,,,
BOSCH,6.06301E+13,6.06301E+13,-37.6488543,-58.2319235,BALCARCE,BALCARCE,BUENOS AIRES,,,,,,
COLONIA BALCARCE,6.06301E+13,6.06301E+13,-37.7549509,-58.3270049,BALCARCE,BALCARCE,BUENOS AIRES,,,,,,
SAN SIMON,6.06301E+13,6.06301E+13,-37.56184801,-58.55532285,BALCARCE,BALCARCE,BUENOS AIRES,,,,,,
BELLA VISTA,6.06301E+13,6.06301E+13,-37.89504121,-58.23709204,BALCARCE,BALCARCE,BUENOS AIRES,,,,,,
EL CAPRICHO,6.06301E+13,6.06301E+13,-37.857051,-58.3920838,BALCARCE,BALCARCE,BUENOS AIRES,,,,,,
JUAN VICENTY,6.06301E+13,6.06301E+13,-37.7626686,-58.1461758,BALCARCE,BALCARCE,BUENOS AIRES,,,,,,
EL VOLCAN,6.06301E+13,6.06301E+13,-37.79414749,-58.02572635,BALCARCE,BALCARCE,BUENOS AIRES,,,,,,
ESQ DE LAHITTE,6.06301E+13,6.06301E+13,-38.0503027,-58.338549,BALCARCE,BALCARCE,BUENOS AIRES,,,,,,
CUARTEL III,6.06301E+13,6.06301E+13,-37.84080652,-58.22663392,BALCARCE,BALCARCE,BUENOS AIRES,,,,,,
LOS PINOS,6.06301E+13,6.06301E+13,-37.94120576,-58.32259202,BALCARCE,BALCARCE,BUENOS AIRES,,,,,,
RAMOS OTERO,6.06301E+13,6.06301E+13,-37.54263537,-58.34071855,BALCARCE,BALCARCE,BUENOS AIRES,,,,,,
LA ESPERANZA,6.06301E+13,6.06301E+13,-37.7863609,-57.9695415,BALCARCE,BALCARCE,BUENOS AIRES,,,,,,
CINCO CERROS,6.06301E+13,6.06301E+13,-37.79638499,-58.26645494,BALCARCE,BALCARCE,BUENOS AIRES,,,,,,
EL PARQUE,6.06301E+13,6.06301E+13,-37.8896836,-58.3094936,BALCARCE,BALCARCE,BUENOS AIRES,,,,,,
LA PALOMA,6.06301E+13,6.06301E+13,-37.64469,-57.94601,BALCARCE,BALCARCE,BUENOS AIRES,,,,,,
ESTACION LA ALBORADA,6.06301E+13,6.06301E+13,-37.4628225,-58.2487315,BALCARCE,BALCARCE,BUENOS AIRES,,,,,,
LLANOS,6.06301E+13,6.06301E+13,-37.8875805,-58.1224812,BALCARCE,BALCARCE,BUENOS AIRES,,,,,,
SAN AGUSTIN,6.06301E+13,6.06301E+13,-38.01228386,-58.35537776,BALCARCE,BALCARCE,BUENOS AIRES,,,,,,
CABAÑA SAN JUAN,6.06301E+13,6.06301E+13,-37.5618482,-58.5553242,BALCARCE,BALCARCE,BUENOS AIRES,,,,,,
LA DELIA,6.06301E+13,6.06301E+13,-37.96406555,-58.2235718,BALCARCE,BALCARCE,BUENOS AIRES,,,,,,
NAPALEOFU,6.06301E+13,6.06301E+13,-37.62549802,-58.74618624,BALCARCE,BALCARCE,BUENOS AIRES,,,,,,
VILLA LAGUNA LA BRAVA,6.06301E+13,6.06301E+13,-37.85962853,-57.98060087,BALCARCE,BALCARCE,BUENOS AIRES,,,,,,
SAN ALBERTO,6.06301E+13,6.06301E+13,-37.673091,-58.4530676,BALCARCE,BALCARCE,BUENOS AIRES,,,,,,
EL VIGILANTE,6.06301E+13,6.06301E+13,-37.6750758,-57.7660283,BALCARCE,BALCARCE,BUENOS AIRES,,,,,,
EL CERRO,6.06301E+13,6.06301E+13,-37.76005173,-58.15893176,BALCARCE,BALCARCE,BUENOS AIRES,,,,,,
EL VERANO,6.06301E+13,6.06301E+13,-37.7435626,-58.5568858,BALCARCE,BALCARCE,BUENOS AIRES,,,,,,
LA ADELA,6.06301E+13,6.06301E+13,-37.70725251,-57.78824619,BALCARCE,BALCARCE,BUENOS AIRES,,,,,,
PUERTA DEL ABRA,6.06301E+13,6.06301E+13,-37.86470526,-58.00974913,BALCARCE,BALCARCE,BUENOS AIRES,,,,,,
DEAN FUNES,1.4049E+14,1.4049E+14,-30.42294094,-64.35166977,DEAN FUNES,ISCHILIN,CÓRDOBA,,,,,,
VILLA DEL PRADO,1.41473E+14,1.41473E+14,-31.61793976,-64.39249253,VILLA DEL PRADO,SANTA MARÍA,CÓRDOBA,,,,,,
CAVANAGH,1.40631E+14,1.40631E+14,-33.4783349,-62.33934646,CAVANAGH,MARCOS JUAREZ,CÓRDOBA,,,,,,
GASTONA,9.00218E+14,9.00218E+14,-27.30611038,-65.53450775,ARCADIA,CHICLIGASTA,TUCUMÁN,,,,,,
FINCA LEON CORNET,9.00218E+14,9.00218E+14,-27.3046126,-65.61996,ARCADIA,CHICLIGASTA,TUCUMÁN,,,,,,
GASTONILLA,9.00218E+14,9.00218E+14,-27.33447456,-65.53635407,ARCADIA,CHICLIGASTA,TUCUMÁN,,,,,,
LA HIGUERA,9.00218E+14,9.00218E+14,-27.30421639,-65.68960571,ARCADIA,CHICLIGASTA,TUCUMÁN,,,,,,
LAS FALDAS,9.00218E+14,9.00218E+14,-27.28231239,-65.61364746,ARCADIA,CHICLIGASTA,TUCUMÁN,,,,,,
FINCA LA FALDA,9.00218E+14,9.00218E+14,-27.28382,-65.61723,ARCADIA,CHICLIGASTA,TUCUMÁN,,,,,,
ARCADIA,9.00218E+14,9.00218E+14,-27.30694848,-65.57606749,ARCADIA,CHICLIGASTA,TUCUMÁN,,,,,,
CAVIA CUE,1.814E+14,1.814E+14,-27.52812434,-58.62991619,SAN LUIS DEL PALMAR,SAN LUIS DEL PALMAR,CORRIENTES,,,,,,
COSTA CHICA,1.814E+14,1.814E+14,-27.64553569,-58.06717602,SAN LUIS DEL PALMAR,SAN LUIS DEL PALMAR,CORRIENTES,,,,,,
TRES CRUCES,1.814E+14,1.814E+14,-27.57769517,-58.0328993,SAN LUIS DEL PALMAR,SAN LUIS DEL PALMAR,CORRIENTES,,,,,,
MEDIO,1.814E+14,1.814E+14,-27.53128983,-58.49419102,SAN LUIS DEL PALMAR,SAN LUIS DEL PALMAR,CORRIENTES,,,,,,
EMPEDRADO LIMPIO,1.814E+14,1.814E+14,-27.78969873,-58.35820732,SAN LUIS DEL PALMAR,SAN LUIS DEL PALMAR,CORRIENTES,,,,,,
INDIO MUERTO,1.814E+14,1.814E+14,-27.68097374,-58.22418218,SAN LUIS DEL PALMAR,SAN LUIS DEL PALMAR,CORRIENTES,,,,,,
COSTA GRANDE,1.814E+14,1.814E+14,-27.43928728,-58.05939872,SAN LUIS DEL PALMAR,SAN LUIS DEL PALMAR,CORRIENTES,,,,,,
LAGUNITA,1.814E+14,1.814E+14,-27.51192145,-58.43498263,SAN LUIS DEL PALMAR,SAN LUIS DEL PALMAR,CORRIENTES,,,,,,
ESPINALLAR,1.814E+14,1.814E+14,-27.54400421,-58.56505246,SAN LUIS DEL PALMAR,SAN LUIS DEL PALMAR,CORRIENTES,,,,,,
PASO LOVERA,1.814E+14,1.814E+14,-27.57539802,-58.63460351,SAN LUIS DEL PALMAR,SAN LUIS DEL PALMAR,CORRIENTES,,,,,,
ALBARDONES,1.814E+14,1.814E+14,-27.60010179,-58.51279305,SAN LUIS DEL PALMAR,SAN LUIS DEL PALMAR,CORRIENTES,,,,,,
RAMONES,1.814E+14,1.814E+14,-27.83155477,-58.29555176,SAN LUIS DEL PALMAR,SAN LUIS DEL PALMAR,CORRIENTES,,,,,,
ORATORIO,1.814E+14,1.814E+14,-27.46320617,-58.34760178,SAN LUIS DEL PALMAR,SAN LUIS DEL PALMAR,CORRIENTES,,,,,,
SANTOS LUGARES,1.814E+14,1.814E+14,-27.46620351,-58.45386541,SAN LUIS DEL PALMAR,SAN LUIS DEL PALMAR,CORRIENTES,,,,,,
ARROYO PONTON,1.814E+14,1.814E+14,-27.58334349,-58.59989922,SAN LUIS DEL PALMAR,SAN LUIS DEL PALMAR,CORRIENTES,,,,,,
CAMPO GRANDE,1.814E+14,1.814E+14,-27.44974729,-58.42238691,SAN LUIS DEL PALMAR,SAN LUIS DEL PALMAR,CORRIENTES,,,,,,
AGUIRRE CUE,1.814E+14,1.814E+14,-27.41325145,-58.37888858,SAN LUIS DEL PALMAR,SAN LUIS DEL PALMAR,CORRIENTES,,,,,,
LOMAS DE GALARZA,1.814E+14,1.814E+14,-27.50527435,-58.07111314,SAN LUIS DEL PALMAR,SAN LUIS DEL PALMAR,CORRIENTES,,,,,,
EL POLLO,1.814E+14,1.814E+14,-27.8524925,-58.38073047,SAN LUIS DEL PALMAR,SAN LUIS DEL PALMAR,CORRIENTES,,,,,,
PEICHOTO CUE,1.814E+14,1.814E+14,-27.50047874,-58.50093369,SAN LUIS DEL PALMAR,SAN LUIS DEL PALMAR,CORRIENTES,,,,,,
MALOYAS,1.814E+14,1.814E+14,-27.54698243,-57.91796104,SAN LUIS DEL PALMAR,SAN LUIS DEL PALMAR,CORRIENTES,,,,,,
CHAÑAR,1.814E+14,1.814E+14,-27.58034136,-57.96011212,SAN LUIS DEL PALMAR,SAN LUIS DEL PALMAR,CORRIENTES,,,,,,
ESQUIVEL CUE,1.814E+14,1.814E+14,-27.46618962,-58.45410987,SAN LUIS DEL PALMAR,SAN LUIS DEL PALMAR,CORRIENTES,,,,,,
CERRUDO CUE,1.814E+14,1.814E+14,-27.56861496,-57.93782806,SAN LUIS DEL PALMAR,SAN LUIS DEL PALMAR,CORRIENTES,,,,,,
COLONIA LLANO,1.814E+14,1.814E+14,-27.50283246,-58.49702061,SAN LUIS DEL PALMAR,SAN LUIS DEL PALMAR,CORRIENTES,,,,,,
SAN LUIS DEL PALMAR,1.814E+14,1.814E+14,-27.50810784,-58.55547442,SAN LUIS DEL PALMAR,SAN LUIS DEL PALMAR,CORRIENTES,,,,,,
TACUARAL,1.814E+14,1.814E+14,-27.69394906,-58.1584809,SAN LUIS DEL PALMAR,SAN LUIS DEL PALMAR,CORRIENTES,,,,,,
COLONIA EL SIMBOLAR,8.61616E+14,8.61616E+14,-27.75031595,-63.79542479,COLONIA EL SIMBOLAR,ROBLES,SANTIAGO DEL ESTERO,,,,,,
CAMPO LA UNION,8.21264E+14,8.21264E+14,-32.3729135,-61.5457161,LOS CARDOS,SAN MARTIN,SANTA FE,,,,,,
LOS CARDOS,8.21264E+14,8.21264E+14,-32.32430311,-61.63211112,LOS CARDOS,SAN MARTIN,SANTA FE,,,,,,
BARDA DEL MEDIO,6.2042E+14,6.2042E+14,-38.72466334,-68.15805609,CONTRALMIRANTE CORDERO,GENERAL ROCA,RÍO NEGRO,,,,,,
CONTRALMIRANTE CORDERO,6.2042E+14,6.2042E+14,-38.75700626,-68.09949721,CONTRALMIRANTE CORDERO,GENERAL ROCA,RÍO NEGRO,,,,,,
SANTA MARIA NORTE,8.20703E+14,8.20703E+14,-31.54788877,-61.15122778,SANTA MARIA NORTE,LAS COLONIAS,SANTA FE,,,,,,
BUENA VISTA,1.40772E+14,1.40772E+14,-31.39197937,-64.92301366,SAN GERONIMO,POCHO,CÓRDOBA,,,,,,
SAN GERONIMO,1.40772E+14,1.40772E+14,-31.340952,-64.91319497,SAN GERONIMO,POCHO,CÓRDOBA,,,,,,
PALACIOS,8.20914E+14,8.20914E+14,-30.71066941,-61.62369521,PALACIOS,SAN CRISTOBAL,SANTA FE,,,,,,
EL BRETE,6.6084E+14,6.6084E+14,-26.06120873,-65.31659699,EL TALA,LA CANDELARIA,SALTA,,,,,,
EL TALA,6.6084E+14,6.6084E+14,-26.12089176,-65.28730588,EL TALA,LA CANDELARIA,SALTA,,,,,,
LOS MOGOTES,6.6084E+14,6.6084E+14,-26.03282929,-65.17928314,EL TALA,LA CANDELARIA,SALTA,,,,,,
SENILLOSA,5.8035E+14,5.8035E+14,-39.01130348,-68.43338339,SENILLOSA,CONFLUENCIA,NEUQUÉN,,,,,,
AGUADA TOLEDO,5.8035E+14,5.8035E+14,-38.75282316,-68.83773873,SENILLOSA,CONFLUENCIA,NEUQUÉN,,,,,,
ARROYITO,5.8035E+14,5.8035E+14,-39.0743998,-68.57033506,SENILLOSA,CONFLUENCIA,NEUQUÉN,,,,,,
CHINA MUERTA,5.8035E+14,5.8035E+14,-38.98325235,-68.38905189,SENILLOSA,CONFLUENCIA,NEUQUÉN,,,,,,
LAS PEÑAS,1.41682E+14,1.41682E+14,-30.5617526,-64.00198421,LAS PEÑAS,TOTORAL,CÓRDOBA,,,,,,
LOS ROBLES,9.00708E+14,9.00708E+14,-27.16453909,-65.42921817,ACHERAL,MONTEROS,TUCUMÁN,,,,,,
SAN JOSE DE FLORES,9.00708E+14,9.00708E+14,-27.14116804,-65.42310723,ACHERAL,MONTEROS,TUCUMÁN,,,,,,
LA CIENAGA,9.00708E+14,9.00708E+14,-27.1078831,-65.5046157,ACHERAL,MONTEROS,TUCUMÁN,,,,,,
RINCON DE BALDERRAMA,9.00708E+14,9.00708E+14,-27.1582735,-65.3992214,ACHERAL,MONTEROS,TUCUMÁN,,,,,,
ACHERAL,9.00708E+14,9.00708E+14,-27.12072051,-65.47056472,ACHERAL,MONTEROS,TUCUMÁN,,,,,,
ALTO DE LEIVA,9.00708E+14,9.00708E+14,-27.13862419,-65.44361877,ACHERAL,MONTEROS,TUCUMÁN,,,,,,
ALDEA SAN JUAN,3.00569E+14,3.00569E+14,-32.7037885,-58.7790625,ALDEA SAN JUAN,GUALEGUAYCHU,ENTRE RÍOS,,,,,,
CAMPO SCARAFIOCCA,1.4161E+14,1.4161E+14,-32.02915993,-63.65149079,AREA SIN GOBIERNO,TERCERO ARRIBA,CÓRDOBA,,,,,,
COLONIA GARZON,1.4161E+14,1.4161E+14,-32.0377388,-63.76774216,AREA SIN GOBIERNO,TERCERO ARRIBA,CÓRDOBA,,,,,,
CAMPO EL CHILO,1.4161E+14,1.4161E+14,-32.40767414,-63.90034307,AREA SIN GOBIERNO,TERCERO ARRIBA,CÓRDOBA,,,,,,
CAMPO FIORETTA,1.4161E+14,1.4161E+14,-32.2375162,-63.6930005,AREA SIN GOBIERNO,TERCERO ARRIBA,CÓRDOBA,,,,,,
CAPILLA GARZON,1.4161E+14,1.4161E+14,-32.08147638,-63.73585941,AREA SIN GOBIERNO,TERCERO ARRIBA,CÓRDOBA,,,,,,
CAMPO PEROTTI,1.4161E+14,1.4161E+14,-32.08297338,-63.45506617,AREA SIN GOBIERNO,TERCERO ARRIBA,CÓRDOBA,,,,,,
COLONIA LOLA,1.4161E+14,1.4161E+14,-32.69231463,-63.95035944,AREA SIN GOBIERNO,TERCERO ARRIBA,CÓRDOBA,,,,,,
CAMPO CAPRIVI,1.4161E+14,1.4161E+14,-32.63423954,-63.84590208,AREA SIN GOBIERNO,TERCERO ARRIBA,CÓRDOBA,,,,,,
LAS PETACAS,1.4161E+14,1.4161E+14,-32.47805252,-63.98405649,AREA SIN GOBIERNO,TERCERO ARRIBA,CÓRDOBA,,,,,,
CAMPO LAS SELVAS,1.4161E+14,1.4161E+14,-32.55647951,-63.89056381,AREA SIN GOBIERNO,TERCERO ARRIBA,CÓRDOBA,,,,,,
CAMPO SAN ALFREDO,1.4161E+14,1.4161E+14,-31.96706495,-63.09701986,AREA SIN GOBIERNO,TERCERO ARRIBA,CÓRDOBA,,,,,,
CAMPO MACAGNO,1.4161E+14,1.4161E+14,-32.1601435,-63.7514118,AREA SIN GOBIERNO,TERCERO ARRIBA,CÓRDOBA,,,,,,
CAMPO ROSSI,1.4161E+14,1.4161E+14,-32.23770672,-63.46761389,AREA SIN GOBIERNO,TERCERO ARRIBA,CÓRDOBA,,,,,,
